[
  {
    "id": "water-1",
    "type": "water_supply",
    "name": "区立東郷元帥記念公園",
    "latitude": 35.690219,
    "longitude": 139.74026,
    "address": "",
    "capacity": 1500,
    "imageUrl": "https://www.waterworks.metro.tokyo.lg.jp/files/items/18931/Image/1.jpg"
  },
  {
    "id": "water-2",
    "type": "water_supply",
    "name": "都立日比谷公園",
    "latitude": 35.676068,
    "longitude": 139.756192,
    "address": "",
    "capacity": 1500,
    "imageUrl": "https://www.waterworks.metro.tokyo.lg.jp/files/items/18931/Image/2.jpg"
  },
  {
    "id": "water-3",
    "type": "water_supply",
    "name": "都立一橋高等学校",
    "latitude": 35.6945844,
    "longitude": 139.781041,
    "address": "",
    "capacity": 100,
    "imageUrl": "https://www.waterworks.metro.tokyo.lg.jp/files/items/18931/Image/3.jpg"
  },
  {
    "id": "water-4",
    "type": "water_supply",
    "name": "晴海給水所",
    "latitude": 35.65832,
    "longitude": 139.78408,
    "address": "",
    "capacity": 1300,
    "imageUrl": "https://www.waterworks.metro.tokyo.lg.jp/files/items/18931/Image/4.jpg"
  },
  {
    "id": "water-5",
    "type": "water_supply",
    "name": "区立あかつき公園",
    "latitude": 35.665987,
    "longitude": 139.776889,
    "address": "",
    "capacity": 1500,
    "imageUrl": "https://www.waterworks.metro.tokyo.lg.jp/files/items/18931/Image/5.jpg"
  },
  {
    "id": "water-6",
    "type": "water_supply",
    "name": "区立堀留児童公園",
    "latitude": 35.6871001,
    "longitude": 139.779214,
    "address": "",
    "capacity": 100,
    "imageUrl": "https://www.waterworks.metro.tokyo.lg.jp/files/items/18931/Image/6.jpg"
  },
  {
    "id": "water-7",
    "type": "water_supply",
    "name": "芝給水所",
    "latitude": 35.6612205,
    "longitude": 139.745108,
    "address": "",
    "capacity": 26600,
    "imageUrl": "https://www.waterworks.metro.tokyo.lg.jp/files/items/18931/Image/7.jpg"
  },
  {
    "id": "water-8",
    "type": "water_supply",
    "name": "都立青山公園",
    "latitude": 35.66437,
    "longitude": 139.724887,
    "address": "",
    "capacity": 1500,
    "imageUrl": "https://www.waterworks.metro.tokyo.lg.jp/files/items/18931/Image/8.jpg"
  },
  {
    "id": "water-9",
    "type": "water_supply",
    "name": "シティハイツ桂坂 (港区防災活動拠点)",
    "latitude": 35.634688,
    "longitude": 139.738064,
    "address": "",
    "capacity": 100,
    "imageUrl": "https://www.waterworks.metro.tokyo.lg.jp/files/items/18931/Image/9.jpg"
  },
  {
    "id": "water-10",
    "type": "water_supply",
    "name": "淀橋給水所",
    "latitude": 35.6881427,
    "longitude": 139.690673,
    "address": "",
    "capacity": 24000,
    "imageUrl": "https://www.waterworks.metro.tokyo.lg.jp/files/items/18931/Image/10.jpg"
  },
  {
    "id": "water-11",
    "type": "water_supply",
    "name": "区立鶴巻南公園",
    "latitude": 35.706243,
    "longitude": 139.724088,
    "address": "",
    "capacity": 1500,
    "imageUrl": "https://www.waterworks.metro.tokyo.lg.jp/files/items/18931/Image/11.jpg"
  },
  {
    "id": "water-12",
    "type": "water_supply",
    "name": "区立百人町ふれあい公園",
    "latitude": 35.706365,
    "longitude": 139.695779,
    "address": "",
    "capacity": 1500,
    "imageUrl": "https://www.waterworks.metro.tokyo.lg.jp/files/items/18931/Image/12.jpg"
  },
  {
    "id": "water-13",
    "type": "water_supply",
    "name": "本郷給水所",
    "latitude": 35.7038488,
    "longitude": 139.760411,
    "address": "",
    "capacity": 20000,
    "imageUrl": "https://www.waterworks.metro.tokyo.lg.jp/files/items/18931/Image/13.jpg"
  },
  {
    "id": "water-14",
    "type": "water_supply",
    "name": "区立教育の森公園",
    "latitude": 35.7208,
    "longitude": 139.73559,
    "address": "",
    "capacity": 1500,
    "imageUrl": "https://www.waterworks.metro.tokyo.lg.jp/files/items/18931/Image/14.jpg"
  },
  {
    "id": "water-15",
    "type": "water_supply",
    "name": "都立上野恩賜公園",
    "latitude": 35.717343,
    "longitude": 139.774526,
    "address": "",
    "capacity": 1500,
    "imageUrl": "https://www.waterworks.metro.tokyo.lg.jp/files/items/18931/Image/15.jpg"
  },
  {
    "id": "water-16",
    "type": "water_supply",
    "name": "区立隅田公園山谷堀広場",
    "latitude": 35.7169585,
    "longitude": 139.804179,
    "address": "",
    "capacity": 100,
    "imageUrl": "https://www.waterworks.metro.tokyo.lg.jp/files/items/18931/Image/16.jpg"
  },
  {
    "id": "water-17",
    "type": "water_supply",
    "name": "区立文花公園",
    "latitude": 35.70891,
    "longitude": 139.82186,
    "address": "",
    "capacity": 1500,
    "imageUrl": "https://www.waterworks.metro.tokyo.lg.jp/files/items/18931/Image/17.jpg"
  },
  {
    "id": "water-18",
    "type": "water_supply",
    "name": "区立両国公園",
    "latitude": 35.693666,
    "longitude": 139.795728,
    "address": "",
    "capacity": 100,
    "imageUrl": "https://www.waterworks.metro.tokyo.lg.jp/files/items/18931/Image/18.jpg"
  },
  {
    "id": "water-19",
    "type": "water_supply",
    "name": "亀戸給水所",
    "latitude": 35.7001343,
    "longitude": 139.81999,
    "address": "",
    "capacity": 20000,
    "imageUrl": "https://www.waterworks.metro.tokyo.lg.jp/files/items/18931/Image/19.jpg"
  },
  {
    "id": "water-20",
    "type": "water_supply",
    "name": "豊住給水所",
    "latitude": 35.67504,
    "longitude": 139.810955,
    "address": "",
    "capacity": 13300,
    "imageUrl": "https://www.waterworks.metro.tokyo.lg.jp/files/items/18931/Image/20.jpg"
  },
  {
    "id": "water-21",
    "type": "water_supply",
    "name": "江東給水所",
    "latitude": 35.6654223,
    "longitude": 139.841327,
    "address": "",
    "capacity": 22000,
    "imageUrl": "https://www.waterworks.metro.tokyo.lg.jp/files/items/18931/Image/21.jpg"
  },
  {
    "id": "water-22",
    "type": "water_supply",
    "name": "有明給水所",
    "latitude": 35.6308274,
    "longitude": 139.78544,
    "address": "",
    "capacity": 6600,
    "imageUrl": "https://www.waterworks.metro.tokyo.lg.jp/files/items/18931/Image/22.jpg"
  },
  {
    "id": "water-23",
    "type": "water_supply",
    "name": "区立南砂三丁目公園",
    "latitude": 35.670954,
    "longitude": 139.832646,
    "address": "",
    "capacity": 1500,
    "imageUrl": "https://www.waterworks.metro.tokyo.lg.jp/files/items/18931/Image/23.jpg"
  },
  {
    "id": "water-24",
    "type": "water_supply",
    "name": "都立辰巳の森海浜公園",
    "latitude": 35.648004,
    "longitude": 139.812798,
    "address": "",
    "capacity": 1500,
    "imageUrl": "https://www.waterworks.metro.tokyo.lg.jp/files/items/18931/Image/24.jpg"
  },
  {
    "id": "water-25",
    "type": "water_supply",
    "name": "区立戸越公園",
    "latitude": 35.61059,
    "longitude": 139.72284,
    "address": "",
    "capacity": 1500,
    "imageUrl": "https://www.waterworks.metro.tokyo.lg.jp/files/items/18931/Image/25.jpg"
  },
  {
    "id": "water-26",
    "type": "water_supply",
    "name": "区立しおじ公園",
    "latitude": 35.59629,
    "longitude": 139.75039,
    "address": "",
    "capacity": 1500,
    "imageUrl": "https://www.waterworks.metro.tokyo.lg.jp/files/items/18931/Image/26.jpg"
  },
  {
    "id": "water-27",
    "type": "water_supply",
    "name": "都立八潮高等学校",
    "latitude": 35.611851,
    "longitude": 139.74661,
    "address": "",
    "capacity": 100,
    "imageUrl": "https://www.waterworks.metro.tokyo.lg.jp/files/items/18931/Image/27.jpg"
  },
  {
    "id": "water-28",
    "type": "water_supply",
    "name": "八雲給水所",
    "latitude": 35.620566,
    "longitude": 139.670911,
    "address": "",
    "capacity": 16600,
    "imageUrl": "https://www.waterworks.metro.tokyo.lg.jp/files/items/18931/Image/28.jpg"
  },
  {
    "id": "water-29",
    "type": "water_supply",
    "name": "都立林試の森公園",
    "latitude": 35.625388,
    "longitude": 139.705384,
    "address": "",
    "capacity": 1500,
    "imageUrl": "https://www.waterworks.metro.tokyo.lg.jp/files/items/18931/Image/29.jpg"
  },
  {
    "id": "water-30",
    "type": "water_supply",
    "name": "馬込給水所",
    "latitude": 35.5886364,
    "longitude": 139.70192,
    "address": "",
    "capacity": 12080,
    "imageUrl": "https://www.waterworks.metro.tokyo.lg.jp/files/items/18931/Image/30.jpg"
  },
  {
    "id": "water-31",
    "type": "water_supply",
    "name": "上池台給水所",
    "latitude": 35.6004761,
    "longitude": 139.699734,
    "address": "",
    "capacity": 11000,
    "imageUrl": "https://www.waterworks.metro.tokyo.lg.jp/files/items/18931/Image/31.jpg"
  },
  {
    "id": "water-32",
    "type": "water_supply",
    "name": "東海給水所",
    "latitude": 35.5852378,
    "longitude": 139.75335,
    "address": "",
    "capacity": 13300,
    "imageUrl": "https://www.waterworks.metro.tokyo.lg.jp/files/items/18931/Image/32.jpg"
  },
  {
    "id": "water-33",
    "type": "water_supply",
    "name": "区立西六郷三丁目公園",
    "latitude": 35.5463837,
    "longitude": 139.705564,
    "address": "",
    "capacity": 1500,
    "imageUrl": "https://www.waterworks.metro.tokyo.lg.jp/files/items/18931/Image/33.jpg"
  },
  {
    "id": "water-34",
    "type": "water_supply",
    "name": "区立萩中公園",
    "latitude": 35.5507281,
    "longitude": 139.737397,
    "address": "",
    "capacity": 1500,
    "imageUrl": "https://www.waterworks.metro.tokyo.lg.jp/files/items/18931/Image/34.jpg"
  },
  {
    "id": "water-35",
    "type": "water_supply",
    "name": "区立都堀公園",
    "latitude": 35.57786,
    "longitude": 139.7384,
    "address": "",
    "capacity": 1500,
    "imageUrl": "https://www.waterworks.metro.tokyo.lg.jp/files/items/18931/Image/35.jpg"
  },
  {
    "id": "water-36",
    "type": "water_supply",
    "name": "区立下丸子公園",
    "latitude": 35.569444,
    "longitude": 139.681378,
    "address": "",
    "capacity": 1500,
    "imageUrl": "https://www.waterworks.metro.tokyo.lg.jp/files/items/18931/Image/36.jpg"
  },
  {
    "id": "water-37",
    "type": "water_supply",
    "name": "区立女塚なかよし公園",
    "latitude": 35.5727504,
    "longitude": 139.711054,
    "address": "",
    "capacity": 100,
    "imageUrl": "https://www.waterworks.metro.tokyo.lg.jp/files/items/18931/Image/37.jpg"
  },
  {
    "id": "water-38",
    "type": "water_supply",
    "name": "砧浄水場",
    "latitude": 35.623056,
    "longitude": 139.593948,
    "address": "",
    "capacity": 8300,
    "imageUrl": "https://www.waterworks.metro.tokyo.lg.jp/files/items/18931/Image/38.jpg"
  },
  {
    "id": "water-39",
    "type": "water_supply",
    "name": "砧下浄水所",
    "latitude": 35.617936,
    "longitude": 139.610803,
    "address": "",
    "capacity": 700,
    "imageUrl": "https://www.waterworks.metro.tokyo.lg.jp/files/items/18931/Image/39.jpg"
  },
  {
    "id": "water-40",
    "type": "water_supply",
    "name": "和田堀給水所",
    "latitude": 35.670036,
    "longitude": 139.657061,
    "address": "",
    "capacity": 20300,
    "imageUrl": "https://www.waterworks.metro.tokyo.lg.jp/files/items/18931/Image/40.jpg"
  },
  {
    "id": "water-41",
    "type": "water_supply",
    "name": "玉川給水所",
    "latitude": 35.599819,
    "longitude": 139.66272,
    "address": "",
    "capacity": 20000,
    "imageUrl": "https://www.waterworks.metro.tokyo.lg.jp/files/items/18931/Image/41.jpg"
  },
  {
    "id": "water-42",
    "type": "water_supply",
    "name": "大蔵給水所",
    "latitude": 35.642887,
    "longitude": 139.616369,
    "address": "",
    "capacity": 13300,
    "imageUrl": "https://www.waterworks.metro.tokyo.lg.jp/files/items/18931/Image/42.jpg"
  },
  {
    "id": "water-43",
    "type": "water_supply",
    "name": "駒沢給水所",
    "latitude": 35.633124,
    "longitude": 139.650269,
    "address": "",
    "capacity": 3200,
    "imageUrl": "https://www.waterworks.metro.tokyo.lg.jp/files/items/18931/Image/43.jpg"
  },
  {
    "id": "water-44",
    "type": "water_supply",
    "name": "区立こどものひろば公園",
    "latitude": 35.6427401,
    "longitude": 139.678642,
    "address": "",
    "capacity": 1500,
    "imageUrl": "https://www.waterworks.metro.tokyo.lg.jp/files/items/18931/Image/44.jpg"
  },
  {
    "id": "water-45",
    "type": "water_supply",
    "name": "区立葭根公園",
    "latitude": 35.6580311,
    "longitude": 139.622471,
    "address": "",
    "capacity": 1500,
    "imageUrl": "https://www.waterworks.metro.tokyo.lg.jp/files/items/18931/Image/45.jpg"
  },
  {
    "id": "water-46",
    "type": "water_supply",
    "name": "都立祖師谷公園",
    "latitude": 35.6531,
    "longitude": 139.59928,
    "address": "",
    "capacity": 1500,
    "imageUrl": "https://www.waterworks.metro.tokyo.lg.jp/files/items/18931/Image/46.jpg"
  },
  {
    "id": "water-47",
    "type": "water_supply",
    "name": "区立中町二丁目公園",
    "latitude": 35.6116002,
    "longitude": 139.641169,
    "address": "",
    "capacity": 100,
    "imageUrl": "https://www.waterworks.metro.tokyo.lg.jp/files/items/18931/Image/47.jpg"
  },
  {
    "id": "water-48",
    "type": "water_supply",
    "name": "都立代々木公園",
    "latitude": 35.668993,
    "longitude": 139.695398,
    "address": "",
    "capacity": 1500,
    "imageUrl": "https://www.waterworks.metro.tokyo.lg.jp/files/items/18931/Image/48.jpg"
  },
  {
    "id": "water-49",
    "type": "water_supply",
    "name": "都立第一商業高等学校",
    "latitude": 35.650164,
    "longitude": 139.698585,
    "address": "",
    "capacity": 100,
    "imageUrl": "https://www.waterworks.metro.tokyo.lg.jp/files/items/18931/Image/49.jpg"
  },
  {
    "id": "water-50",
    "type": "water_supply",
    "name": "区立景丘公園",
    "latitude": 35.6437963,
    "longitude": 139.713581,
    "address": "",
    "capacity": 100,
    "imageUrl": "https://www.waterworks.metro.tokyo.lg.jp/files/items/18931/Image/50.jpg"
  },
  {
    "id": "water-51",
    "type": "water_supply",
    "name": "区立弥生公園",
    "latitude": 35.6863389,
    "longitude": 139.6669699,
    "address": "",
    "capacity": 100,
    "imageUrl": "https://www.waterworks.metro.tokyo.lg.jp/files/items/18931/Image/51.jpg"
  },
  {
    "id": "water-52",
    "type": "water_supply",
    "name": "区立江古田の森公園",
    "latitude": 35.73,
    "longitude": 139.66623,
    "address": "",
    "capacity": 100,
    "imageUrl": "https://www.waterworks.metro.tokyo.lg.jp/files/items/18931/Image/52.jpg"
  },
  {
    "id": "water-53",
    "type": "water_supply",
    "name": "区立みずのとう公園",
    "latitude": 35.724759,
    "longitude": 139.674948,
    "address": "",
    "capacity": 100,
    "imageUrl": "https://www.waterworks.metro.tokyo.lg.jp/files/items/18931/Image/53.jpg"
  },
  {
    "id": "water-54",
    "type": "water_supply",
    "name": "杉並浄水所",
    "latitude": 35.715126,
    "longitude": 139.588683,
    "address": "",
    "imageUrl": "https://www.waterworks.metro.tokyo.lg.jp/files/items/18931/Image/54.jpg"
  },
  {
    "id": "water-55",
    "type": "water_supply",
    "name": "和泉水圧調整所",
    "latitude": 35.671071,
    "longitude": 139.652962,
    "address": "",
    "capacity": 16600,
    "imageUrl": "https://www.waterworks.metro.tokyo.lg.jp/files/items/18931/Image/55.jpg"
  },
  {
    "id": "water-56",
    "type": "water_supply",
    "name": "上井草給水所",
    "latitude": 35.7216352,
    "longitude": 139.601235,
    "address": "",
    "capacity": 60000,
    "imageUrl": "https://www.waterworks.metro.tokyo.lg.jp/files/items/18931/Image/56.jpg"
  },
  {
    "id": "water-57",
    "type": "water_supply",
    "name": "都立和田堀公園",
    "latitude": 35.6849095,
    "longitude": 139.6415107,
    "address": "",
    "capacity": 1500,
    "imageUrl": "https://www.waterworks.metro.tokyo.lg.jp/files/items/18931/Image/57.jpg"
  },
  {
    "id": "water-58",
    "type": "water_supply",
    "name": "区立蚕糸の森公園",
    "latitude": 35.69637,
    "longitude": 139.65699,
    "address": "",
    "capacity": 1500,
    "imageUrl": "https://www.waterworks.metro.tokyo.lg.jp/files/items/18931/Image/58.jpg"
  },
  {
    "id": "water-59",
    "type": "water_supply",
    "name": "区立昭栄公園",
    "latitude": 35.680084,
    "longitude": 139.6083509,
    "address": "",
    "capacity": 1500,
    "imageUrl": "https://www.waterworks.metro.tokyo.lg.jp/files/items/18931/Image/59.jpg"
  },
  {
    "id": "water-60",
    "type": "water_supply",
    "name": "区立井草森公園",
    "latitude": 35.7269509,
    "longitude": 139.6117369,
    "address": "",
    "capacity": 1500,
    "imageUrl": "https://www.waterworks.metro.tokyo.lg.jp/files/items/18931/Image/60.jpg"
  },
  {
    "id": "water-61",
    "type": "water_supply",
    "name": "区立馬橋公園",
    "latitude": 35.709583,
    "longitude": 139.643056,
    "address": "",
    "capacity": 100,
    "imageUrl": "https://www.waterworks.metro.tokyo.lg.jp/files/items/18931/Image/61.jpg"
  },
  {
    "id": "water-62",
    "type": "water_supply",
    "name": "都立善福寺川緑地",
    "latitude": 35.692188,
    "longitude": 139.628662,
    "address": "",
    "capacity": 100,
    "imageUrl": "https://www.waterworks.metro.tokyo.lg.jp/files/items/18931/Image/62.jpg"
  },
  {
    "id": "water-63",
    "type": "water_supply",
    "name": "区立西池袋公園",
    "latitude": 35.7291806,
    "longitude": 139.7064044,
    "address": "",
    "capacity": 1500,
    "imageUrl": "https://www.waterworks.metro.tokyo.lg.jp/files/items/18931/Image/63.jpg"
  },
  {
    "id": "water-64",
    "type": "water_supply",
    "name": "都立文京高等学校",
    "latitude": 35.7358562,
    "longitude": 139.728987,
    "address": "",
    "capacity": 100,
    "imageUrl": "https://www.waterworks.metro.tokyo.lg.jp/files/items/18931/Image/64.jpg"
  },
  {
    "id": "water-65",
    "type": "water_supply",
    "name": "区立桐ケ丘中央公園",
    "latitude": 35.7771033,
    "longitude": 139.7067568,
    "address": "",
    "capacity": 1500,
    "imageUrl": "https://www.waterworks.metro.tokyo.lg.jp/files/items/18931/Image/65.jpg"
  },
  {
    "id": "water-66",
    "type": "water_supply",
    "name": "区立滝野川公園",
    "latitude": 35.7447843,
    "longitude": 139.7441294,
    "address": "",
    "capacity": 1500,
    "imageUrl": "https://www.waterworks.metro.tokyo.lg.jp/files/items/18931/Image/66.jpg"
  },
  {
    "id": "water-67",
    "type": "water_supply",
    "name": "区立北運動公園",
    "latitude": 35.7738574,
    "longitude": 139.7279613,
    "address": "",
    "capacity": 1500,
    "imageUrl": "https://www.waterworks.metro.tokyo.lg.jp/files/items/18931/Image/67.jpg"
  },
  {
    "id": "water-68",
    "type": "water_supply",
    "name": "南千住給水所",
    "latitude": 35.735711,
    "longitude": 139.807672,
    "address": "",
    "capacity": 33300,
    "imageUrl": "https://www.waterworks.metro.tokyo.lg.jp/files/items/18931/Image/68.jpg"
  },
  {
    "id": "water-69",
    "type": "water_supply",
    "name": "区立日暮里南公園",
    "latitude": 35.7270315,
    "longitude": 139.7773452,
    "address": "",
    "capacity": 1500,
    "imageUrl": "https://www.waterworks.metro.tokyo.lg.jp/files/items/18931/Image/69.jpg"
  },
  {
    "id": "water-70",
    "type": "water_supply",
    "name": "三園浄水場",
    "latitude": 35.7948321,
    "longitude": 139.641979,
    "address": "",
    "capacity": 15600,
    "imageUrl": "https://www.waterworks.metro.tokyo.lg.jp/files/items/18931/Image/70.jpg"
  },
  {
    "id": "water-71",
    "type": "water_supply",
    "name": "板橋給水所",
    "latitude": 35.755489,
    "longitude": 139.718612,
    "address": "",
    "capacity": 26600,
    "imageUrl": "https://www.waterworks.metro.tokyo.lg.jp/files/items/18931/Image/71.jpg"
  },
  {
    "id": "water-72",
    "type": "water_supply",
    "name": "大谷口給水所",
    "latitude": 35.745615,
    "longitude": 139.690848,
    "address": "",
    "capacity": 11600,
    "imageUrl": "https://www.waterworks.metro.tokyo.lg.jp/files/items/18931/Image/72.jpg"
  },
  {
    "id": "water-73",
    "type": "water_supply",
    "name": "都立城北中央公園",
    "latitude": 35.7536508,
    "longitude": 139.6776669,
    "address": "",
    "capacity": 1500,
    "imageUrl": "https://www.waterworks.metro.tokyo.lg.jp/files/items/18931/Image/73.jpg"
  },
  {
    "id": "water-74",
    "type": "water_supply",
    "name": "区立城北公園",
    "latitude": 35.7825806,
    "longitude": 139.6814502,
    "address": "",
    "capacity": 1500,
    "imageUrl": "https://www.waterworks.metro.tokyo.lg.jp/files/items/18931/Image/74.jpg"
  },
  {
    "id": "water-75",
    "type": "water_supply",
    "name": "都立板橋高等学校",
    "latitude": 35.7439,
    "longitude": 139.689637,
    "address": "",
    "capacity": 100,
    "imageUrl": "https://www.waterworks.metro.tokyo.lg.jp/files/items/18931/Image/75.jpg"
  },
  {
    "id": "water-76",
    "type": "water_supply",
    "name": "都立赤塚公園",
    "latitude": 35.785528,
    "longitude": 139.65724,
    "address": "",
    "capacity": 100,
    "imageUrl": "https://www.waterworks.metro.tokyo.lg.jp/files/items/18931/Image/76.jpg"
  },
  {
    "id": "water-77",
    "type": "water_supply",
    "name": "区立西徳第二公園",
    "latitude": 35.7766684,
    "longitude": 139.6673924,
    "address": "",
    "capacity": 100,
    "imageUrl": "https://www.waterworks.metro.tokyo.lg.jp/files/items/18931/Image/77.jpg"
  },
  {
    "id": "water-78",
    "type": "water_supply",
    "name": "練馬給水所",
    "latitude": 35.7633861,
    "longitude": 139.631914,
    "address": "",
    "capacity": 66600,
    "imageUrl": "https://www.waterworks.metro.tokyo.lg.jp/files/items/18931/Image/78.jpg"
  },
  {
    "id": "water-79",
    "type": "water_supply",
    "name": "区立大泉公園",
    "latitude": 35.7720555,
    "longitude": 139.582711,
    "address": "",
    "capacity": 1500,
    "imageUrl": "https://www.waterworks.metro.tokyo.lg.jp/files/items/18931/Image/79.jpg"
  },
  {
    "id": "water-80",
    "type": "water_supply",
    "name": "区立学田公園",
    "latitude": 35.7305605,
    "longitude": 139.6491262,
    "address": "",
    "capacity": 1500,
    "imageUrl": "https://www.waterworks.metro.tokyo.lg.jp/files/items/18931/Image/80.jpg"
  },
  {
    "id": "water-81",
    "type": "water_supply",
    "name": "区立はやいち公園",
    "latitude": 35.753025,
    "longitude": 139.656532,
    "address": "",
    "capacity": 100,
    "imageUrl": "https://www.waterworks.metro.tokyo.lg.jp/files/items/18931/Image/81.jpg"
  },
  {
    "id": "water-82",
    "type": "water_supply",
    "name": "区立みんなの広場公園",
    "latitude": 35.7479365,
    "longitude": 139.5986648,
    "address": "",
    "capacity": 100,
    "imageUrl": "https://www.waterworks.metro.tokyo.lg.jp/files/items/18931/Image/82.jpg"
  },
  {
    "id": "water-83",
    "type": "water_supply",
    "name": "小右衛門給水所",
    "latitude": 35.7721511,
    "longitude": 139.807309,
    "address": "",
    "capacity": 16600,
    "imageUrl": "https://www.waterworks.metro.tokyo.lg.jp/files/items/18931/Image/83.jpg"
  },
  {
    "id": "water-84",
    "type": "water_supply",
    "name": "区総合スポーツセンター",
    "latitude": 35.791311,
    "longitude": 139.8140941,
    "address": "",
    "capacity": 1500,
    "imageUrl": "https://www.waterworks.metro.tokyo.lg.jp/files/items/18931/Image/84.jpg"
  },
  {
    "id": "water-85",
    "type": "water_supply",
    "name": "区立千住スポーツ公園",
    "latitude": 35.7440262,
    "longitude": 139.7951426,
    "address": "",
    "capacity": 1500,
    "imageUrl": "https://www.waterworks.metro.tokyo.lg.jp/files/items/18931/Image/85.jpg"
  },
  {
    "id": "water-86",
    "type": "water_supply",
    "name": "区立諏訪木東公園",
    "latitude": 35.7899898,
    "longitude": 139.779992,
    "address": "",
    "capacity": 1500,
    "imageUrl": "https://www.waterworks.metro.tokyo.lg.jp/files/items/18931/Image/86.jpg"
  },
  {
    "id": "water-87",
    "type": "water_supply",
    "name": "区立大谷田南公園",
    "latitude": 35.7721532,
    "longitude": 139.8493937,
    "address": "",
    "capacity": 1500,
    "imageUrl": "https://www.waterworks.metro.tokyo.lg.jp/files/items/18931/Image/87.jpg"
  },
  {
    "id": "water-88",
    "type": "water_supply",
    "name": "区立北鹿浜公園",
    "latitude": 35.7821245,
    "longitude": 139.7536455,
    "address": "",
    "capacity": 1500,
    "imageUrl": "https://www.waterworks.metro.tokyo.lg.jp/files/items/18931/Image/88.jpg"
  },
  {
    "id": "water-89",
    "type": "water_supply",
    "name": "都立舎人公園",
    "latitude": 35.7967372,
    "longitude": 139.7681512,
    "address": "",
    "capacity": 100,
    "imageUrl": "https://www.waterworks.metro.tokyo.lg.jp/files/items/18931/Image/89.jpg"
  },
  {
    "id": "water-90",
    "type": "water_supply",
    "name": "区立北宮城町公園",
    "latitude": 35.7669098,
    "longitude": 139.7702,
    "address": "",
    "capacity": 100,
    "imageUrl": "https://www.waterworks.metro.tokyo.lg.jp/files/items/18931/Image/90.jpg"
  },
  {
    "id": "water-91",
    "type": "water_supply",
    "name": "江北給水所",
    "latitude": 35.77803,
    "longitude": 139.76945,
    "address": "",
    "capacity": 16600,
    "imageUrl": "https://www.waterworks.metro.tokyo.lg.jp/files/items/18931/Image/91.jpg"
  },
  {
    "id": "water-92",
    "type": "water_supply",
    "name": "金町浄水場",
    "latitude": 35.7625165,
    "longitude": 139.878351,
    "address": "",
    "capacity": 48700,
    "imageUrl": "https://www.waterworks.metro.tokyo.lg.jp/files/items/18931/Image/92.jpg"
  },
  {
    "id": "water-93",
    "type": "water_supply",
    "name": "水元給水所（都立水元公園内自由広場）",
    "latitude": 35.7933213,
    "longitude": 139.862382,
    "address": "",
    "capacity": 33300,
    "imageUrl": "https://www.waterworks.metro.tokyo.lg.jp/files/items/18931/Image/93.jpg"
  },
  {
    "id": "water-94",
    "type": "water_supply",
    "name": "区立上干葉公園",
    "latitude": 35.7549733,
    "longitude": 139.839038,
    "address": "",
    "capacity": 1500,
    "imageUrl": "https://www.waterworks.metro.tokyo.lg.jp/files/items/18931/Image/94.jpg"
  },
  {
    "id": "water-95",
    "type": "water_supply",
    "name": "区立新小岩公園",
    "latitude": 35.7158814,
    "longitude": 139.8550625,
    "address": "",
    "capacity": 1500,
    "imageUrl": "https://www.waterworks.metro.tokyo.lg.jp/files/items/18931/Image/95.jpg"
  },
  {
    "id": "water-96",
    "type": "water_supply",
    "name": "区立渋江東公園",
    "latitude": 35.7307623,
    "longitude": 139.843497,
    "address": "",
    "capacity": 100,
    "imageUrl": "https://www.waterworks.metro.tokyo.lg.jp/files/items/18931/Image/96.jpg"
  },
  {
    "id": "water-97",
    "type": "water_supply",
    "name": "西瑞江給水所",
    "latitude": 35.691352,
    "longitude": 139.898084,
    "address": "",
    "capacity": 6600,
    "imageUrl": "https://www.waterworks.metro.tokyo.lg.jp/files/items/18931/Image/97.jpg"
  },
  {
    "id": "water-98",
    "type": "water_supply",
    "name": "葛西給水所",
    "latitude": 35.67497,
    "longitude": 139.86078,
    "address": "",
    "capacity": 13300,
    "imageUrl": "https://www.waterworks.metro.tokyo.lg.jp/files/items/18931/Image/98.jpg"
  },
  {
    "id": "water-99",
    "type": "water_supply",
    "name": "都立篠崎公園",
    "latitude": 35.7143763,
    "longitude": 139.8967471,
    "address": "",
    "capacity": 1500,
    "imageUrl": "https://www.waterworks.metro.tokyo.lg.jp/files/items/18931/Image/99.jpg"
  },
  {
    "id": "water-100",
    "type": "water_supply",
    "name": "区立宇喜田中央公園",
    "latitude": 35.6703527,
    "longitude": 139.8637841,
    "address": "",
    "capacity": 1500,
    "imageUrl": "https://www.waterworks.metro.tokyo.lg.jp/files/items/18931/Image/100.jpg"
  },
  {
    "id": "water-101",
    "type": "water_supply",
    "name": "区立小岩公園",
    "latitude": 35.7462886,
    "longitude": 139.8867233,
    "address": "",
    "capacity": 1500,
    "imageUrl": "https://www.waterworks.metro.tokyo.lg.jp/files/items/18931/Image/101.jpg"
  },
  {
    "id": "water-102",
    "type": "water_supply",
    "name": "都立大島小松川公園",
    "latitude": 35.693831,
    "longitude": 139.852674,
    "address": "",
    "capacity": 1500,
    "imageUrl": "https://www.waterworks.metro.tokyo.lg.jp/files/items/18931/Image/102.jpg"
  },
  {
    "id": "water-103",
    "type": "water_supply",
    "name": "都立葛西南高等学校",
    "latitude": 35.653675,
    "longitude": 139.870792,
    "address": "",
    "capacity": 100,
    "imageUrl": "https://www.waterworks.metro.tokyo.lg.jp/files/items/18931/Image/103.jpg"
  },
  {
    "id": "water-104",
    "type": "water_supply",
    "name": "一之江抹香亭",
    "latitude": 35.6968671,
    "longitude": 139.8819413,
    "address": "",
    "capacity": 100,
    "imageUrl": "https://www.waterworks.metro.tokyo.lg.jp/files/items/18931/Image/104.jpg"
  },
  {
    "id": "water-105",
    "type": "water_supply",
    "name": "白髭東地区防災拠点",
    "latitude": 35.733876,
    "longitude": 139.815874,
    "address": "",
    "capacity": 2700,
    "imageUrl": "https://www.waterworks.metro.tokyo.lg.jp/files/items/18931/Image/213.jpg"
  },
  {
    "id": "water-106",
    "type": "water_supply",
    "name": "鑓水給水所",
    "latitude": 35.6241461,
    "longitude": 139.349782,
    "address": "",
    "capacity": 1660,
    "imageUrl": "https://www.waterworks.metro.tokyo.lg.jp/files/items/18931/Image/105.jpg"
  },
  {
    "id": "water-107",
    "type": "water_supply",
    "name": "西寺方給水所",
    "latitude": 35.68939,
    "longitude": 139.26638,
    "address": "",
    "capacity": 1660,
    "imageUrl": "https://www.waterworks.metro.tokyo.lg.jp/files/items/18931/Image/106.jpg"
  },
  {
    "id": "water-108",
    "type": "water_supply",
    "name": "狭間給水所",
    "latitude": 35.6302942,
    "longitude": 139.278766,
    "address": "",
    "capacity": 5000,
    "imageUrl": "https://www.waterworks.metro.tokyo.lg.jp/files/items/18931/Image/107.jpg"
  },
  {
    "id": "water-109",
    "type": "water_supply",
    "name": "犬目第二給水所",
    "latitude": 35.6993634,
    "longitude": 139.302661,
    "address": "",
    "capacity": 1760,
    "imageUrl": "https://www.waterworks.metro.tokyo.lg.jp/files/items/18931/Image/108.jpg"
  },
  {
    "id": "water-110",
    "type": "water_supply",
    "name": "高月給水所",
    "latitude": 35.7061,
    "longitude": 139.32019,
    "address": "",
    "capacity": 5000,
    "imageUrl": "https://www.waterworks.metro.tokyo.lg.jp/files/items/18931/Image/109.jpg"
  },
  {
    "id": "water-111",
    "type": "water_supply",
    "name": "散田給水所",
    "latitude": 35.651316,
    "longitude": 139.315081,
    "address": "",
    "capacity": 6660,
    "imageUrl": "https://www.waterworks.metro.tokyo.lg.jp/files/items/18931/Image/110.jpg"
  },
  {
    "id": "water-112",
    "type": "water_supply",
    "name": "東浅川給水所",
    "latitude": 35.6405654,
    "longitude": 139.299999,
    "address": "",
    "capacity": 4330,
    "imageUrl": "https://www.waterworks.metro.tokyo.lg.jp/files/items/18931/Image/111.jpg"
  },
  {
    "id": "water-113",
    "type": "water_supply",
    "name": "寺田配水所",
    "latitude": 35.616192,
    "longitude": 139.296856,
    "address": "",
    "capacity": 330,
    "imageUrl": "https://www.waterworks.metro.tokyo.lg.jp/files/items/18931/Image/112.jpg"
  },
  {
    "id": "water-114",
    "type": "water_supply",
    "name": "元八王子配水所",
    "latitude": 35.64726,
    "longitude": 139.26656,
    "address": "",
    "capacity": 150,
    "imageUrl": "https://www.waterworks.metro.tokyo.lg.jp/files/items/18931/Image/113.jpg"
  },
  {
    "id": "water-115",
    "type": "water_supply",
    "name": "北野給水所",
    "latitude": 35.6538594,
    "longitude": 139.354989,
    "address": "",
    "capacity": 5280,
    "imageUrl": "https://www.waterworks.metro.tokyo.lg.jp/files/items/18931/Image/114.jpg"
  },
  {
    "id": "water-116",
    "type": "water_supply",
    "name": "南陽台配水所",
    "latitude": 35.6364467,
    "longitude": 139.374855,
    "address": "",
    "capacity": 330,
    "imageUrl": "https://www.waterworks.metro.tokyo.lg.jp/files/items/18931/Image/115.jpg"
  },
  {
    "id": "water-117",
    "type": "water_supply",
    "name": "楢原給水所",
    "latitude": 35.6772291,
    "longitude": 139.307184,
    "address": "",
    "capacity": 13330,
    "imageUrl": "https://www.waterworks.metro.tokyo.lg.jp/files/items/18931/Image/116.jpg"
  },
  {
    "id": "water-118",
    "type": "water_supply",
    "name": "暁町配水所",
    "latitude": 35.6746641,
    "longitude": 139.336637,
    "address": "",
    "capacity": 830,
    "imageUrl": "https://www.waterworks.metro.tokyo.lg.jp/files/items/18931/Image/117.jpg"
  },
  {
    "id": "water-119",
    "type": "water_supply",
    "name": "久保山配水所",
    "latitude": 35.6864664,
    "longitude": 139.352866,
    "address": "",
    "capacity": 730,
    "imageUrl": "https://www.waterworks.metro.tokyo.lg.jp/files/items/18931/Image/118.jpg"
  },
  {
    "id": "water-120",
    "type": "water_supply",
    "name": "大船給水所",
    "latitude": 35.616612,
    "longitude": 139.317224,
    "address": "",
    "capacity": 7330,
    "imageUrl": "https://www.waterworks.metro.tokyo.lg.jp/files/items/18931/Image/119.jpg"
  },
  {
    "id": "water-121",
    "type": "water_supply",
    "name": "鑓水小山給水所",
    "latitude": 35.606811,
    "longitude": 139.361154,
    "address": "",
    "capacity": 23330,
    "imageUrl": "https://www.waterworks.metro.tokyo.lg.jp/files/items/18931/Image/120.jpg"
  },
  {
    "id": "water-122",
    "type": "water_supply",
    "name": "南大沢給水所",
    "latitude": 35.603229,
    "longitude": 139.37947,
    "address": "",
    "capacity": 4950,
    "imageUrl": "https://www.waterworks.metro.tokyo.lg.jp/files/items/18931/Image/121.jpg"
  },
  {
    "id": "water-123",
    "type": "water_supply",
    "name": "都立陵南公園",
    "latitude": 35.6490541,
    "longitude": 139.2897306,
    "address": "",
    "capacity": 1500,
    "imageUrl": "https://www.waterworks.metro.tokyo.lg.jp/files/items/18931/Image/122.jpg"
  },
  {
    "id": "water-124",
    "type": "water_supply",
    "name": "椚田ポンプ所",
    "latitude": 35.635202,
    "longitude": 139.310873,
    "address": "",
    "capacity": 440,
    "imageUrl": "https://www.waterworks.metro.tokyo.lg.jp/files/items/18931/Image/123.jpg"
  },
  {
    "id": "water-125",
    "type": "water_supply",
    "name": "柴崎給水所",
    "latitude": 35.6968355,
    "longitude": 139.405944,
    "address": "",
    "capacity": 1500,
    "imageUrl": "https://www.waterworks.metro.tokyo.lg.jp/files/items/18931/Image/124.jpg"
  },
  {
    "id": "water-126",
    "type": "water_supply",
    "name": "立川栄町浄水所",
    "latitude": 35.7180059,
    "longitude": 139.424525,
    "address": "",
    "capacity": 330,
    "imageUrl": "https://www.waterworks.metro.tokyo.lg.jp/files/items/18931/Image/125.jpg"
  },
  {
    "id": "water-127",
    "type": "water_supply",
    "name": "立川砂川給水所",
    "latitude": 35.7299825,
    "longitude": 139.407448,
    "address": "",
    "capacity": 5100,
    "imageUrl": "https://www.waterworks.metro.tokyo.lg.jp/files/items/18931/Image/126.jpg"
  },
  {
    "id": "water-128",
    "type": "water_supply",
    "name": "市立松中公園",
    "latitude": 35.72661,
    "longitude": 139.371352,
    "address": "",
    "capacity": 100,
    "imageUrl": "https://www.waterworks.metro.tokyo.lg.jp/files/items/18931/Image/127.jpg"
  },
  {
    "id": "water-129",
    "type": "water_supply",
    "name": "上連雀給水所（西配水場）",
    "latitude": 35.6868321,
    "longitude": 139.55076,
    "address": "",
    "capacity": 5430,
    "imageUrl": "https://www.waterworks.metro.tokyo.lg.jp/files/items/18931/Image/128.jpg"
  },
  {
    "id": "water-130",
    "type": "water_supply",
    "name": "三鷹新川給水所（東配水場）",
    "latitude": 35.6796028,
    "longitude": 139.577258,
    "address": "",
    "capacity": 3330,
    "imageUrl": "https://www.waterworks.metro.tokyo.lg.jp/files/items/18931/Image/129.jpg"
  },
  {
    "id": "water-131",
    "type": "water_supply",
    "name": "日向和田浄水所",
    "latitude": 35.7843741,
    "longitude": 139.234717,
    "address": "",
    "capacity": 880,
    "imageUrl": "https://www.waterworks.metro.tokyo.lg.jp/files/items/18931/Image/130.jpg"
  },
  {
    "id": "water-132",
    "type": "water_supply",
    "name": "千ヶ瀬第二浄水所",
    "latitude": 35.7846878,
    "longitude": 139.277824,
    "address": "",
    "capacity": 200,
    "imageUrl": "https://www.waterworks.metro.tokyo.lg.jp/files/items/18931/Image/131.jpg"
  },
  {
    "id": "water-133",
    "type": "water_supply",
    "name": "御岳山第一配水所",
    "latitude": 35.78347,
    "longitude": 139.15112,
    "address": "",
    "capacity": 70,
    "imageUrl": "https://www.waterworks.metro.tokyo.lg.jp/files/items/18931/Image/132.jpg"
  },
  {
    "id": "water-134",
    "type": "water_supply",
    "name": "成木配水所",
    "latitude": 35.8187204,
    "longitude": 139.241891,
    "address": "",
    "capacity": 30,
    "imageUrl": "https://www.waterworks.metro.tokyo.lg.jp/files/items/18931/Image/133.jpg"
  },
  {
    "id": "water-135",
    "type": "water_supply",
    "name": "新町給水所",
    "latitude": 35.7884612,
    "longitude": 139.308874,
    "address": "",
    "capacity": 2330,
    "imageUrl": "https://www.waterworks.metro.tokyo.lg.jp/files/items/18931/Image/134.jpg"
  },
  {
    "id": "water-136",
    "type": "water_supply",
    "name": "二俣尾配水所",
    "latitude": 35.8152563,
    "longitude": 139.2066375,
    "address": "",
    "capacity": 70,
    "imageUrl": "https://www.waterworks.metro.tokyo.lg.jp/files/items/18931/Image/135.jpg"
  },
  {
    "id": "water-137",
    "type": "water_supply",
    "name": "城山配水所",
    "latitude": 35.796712,
    "longitude": 139.272305,
    "address": "",
    "capacity": 1440,
    "imageUrl": "https://www.waterworks.metro.tokyo.lg.jp/files/items/18931/Image/136.jpg"
  },
  {
    "id": "water-138",
    "type": "water_supply",
    "name": "梅郷配水所",
    "latitude": 35.782215,
    "longitude": 139.226243,
    "address": "",
    "capacity": 1330,
    "imageUrl": "https://www.waterworks.metro.tokyo.lg.jp/files/items/18931/Image/137.jpg"
  },
  {
    "id": "water-139",
    "type": "water_supply",
    "name": "府中武蔵台浄水所及び府中武蔵台ポンプ所",
    "latitude": 35.688081,
    "longitude": 139.460998,
    "address": "",
    "capacity": 3730,
    "imageUrl": "https://www.waterworks.metro.tokyo.lg.jp/files/items/18931/Image/138.jpg"
  },
  {
    "id": "water-140",
    "type": "water_supply",
    "name": "若松給水所",
    "latitude": 35.6760322,
    "longitude": 139.499748,
    "address": "",
    "capacity": 1760,
    "imageUrl": "https://www.waterworks.metro.tokyo.lg.jp/files/items/18931/Image/139.jpg"
  },
  {
    "id": "water-141",
    "type": "water_supply",
    "name": "幸町給水所",
    "latitude": 35.679613,
    "longitude": 139.483705,
    "address": "",
    "capacity": 1140,
    "imageUrl": "https://www.waterworks.metro.tokyo.lg.jp/files/items/18931/Image/140.jpg"
  },
  {
    "id": "water-142",
    "type": "water_supply",
    "name": "府中南町給水所",
    "latitude": 35.6585721,
    "longitude": 139.470907,
    "address": "",
    "capacity": 1660,
    "imageUrl": "https://www.waterworks.metro.tokyo.lg.jp/files/items/18931/Image/141.jpg"
  },
  {
    "id": "water-143",
    "type": "water_supply",
    "name": "都立武蔵野公園",
    "latitude": 35.6879393,
    "longitude": 139.5176078,
    "address": "",
    "capacity": 1500,
    "imageUrl": "https://www.waterworks.metro.tokyo.lg.jp/files/items/18931/Image/142.jpg"
  },
  {
    "id": "water-144",
    "type": "water_supply",
    "name": "上石原配水所",
    "latitude": 35.661306,
    "longitude": 139.531746,
    "address": "",
    "capacity": 1120,
    "imageUrl": "https://www.waterworks.metro.tokyo.lg.jp/files/items/18931/Image/143.jpg"
  },
  {
    "id": "water-145",
    "type": "water_supply",
    "name": "仙川配水所",
    "latitude": 35.665028,
    "longitude": 139.585263,
    "address": "",
    "capacity": 320,
    "imageUrl": "https://www.waterworks.metro.tokyo.lg.jp/files/items/18931/Image/144.jpg"
  },
  {
    "id": "water-146",
    "type": "water_supply",
    "name": "深大寺給水所",
    "latitude": 35.6693259,
    "longitude": 139.555504,
    "address": "",
    "capacity": 9900,
    "imageUrl": "https://www.waterworks.metro.tokyo.lg.jp/files/items/18931/Image/145.jpg"
  },
  {
    "id": "water-147",
    "type": "water_supply",
    "name": "調布西町給水所",
    "latitude": 35.66183,
    "longitude": 139.531668,
    "address": "",
    "capacity": 6660,
    "imageUrl": "https://www.waterworks.metro.tokyo.lg.jp/files/items/18931/Image/146.jpg"
  },
  {
    "id": "water-148",
    "type": "water_supply",
    "name": "小野路給水所",
    "latitude": 35.6055194,
    "longitude": 139.449716,
    "address": "",
    "capacity": 6330,
    "imageUrl": "https://www.waterworks.metro.tokyo.lg.jp/files/items/18931/Image/147.jpg"
  },
  {
    "id": "water-149",
    "type": "water_supply",
    "name": "原町田浄水所",
    "latitude": 35.54707,
    "longitude": 139.450439,
    "address": "",
    "capacity": 520,
    "imageUrl": "https://www.waterworks.metro.tokyo.lg.jp/files/items/18931/Image/148.jpg"
  },
  {
    "id": "water-150",
    "type": "water_supply",
    "name": "滝の沢給水所",
    "latitude": 35.556835,
    "longitude": 139.434658,
    "address": "",
    "capacity": 1880,
    "imageUrl": "https://www.waterworks.metro.tokyo.lg.jp/files/items/18931/Image/149.jpg"
  },
  {
    "id": "water-151",
    "type": "water_supply",
    "name": "野津田浄水所",
    "latitude": 35.5768701,
    "longitude": 139.448481,
    "address": "",
    "capacity": 1000,
    "imageUrl": "https://www.waterworks.metro.tokyo.lg.jp/files/items/18931/Image/150.jpg"
  },
  {
    "id": "water-152",
    "type": "water_supply",
    "name": "市立つくし野セントラルパーク",
    "latitude": 35.5202538,
    "longitude": 139.4822224,
    "address": "",
    "capacity": 1500,
    "imageUrl": "https://www.waterworks.metro.tokyo.lg.jp/files/items/18931/Image/151.jpg"
  },
  {
    "id": "water-153",
    "type": "water_supply",
    "name": "市立鶴川中央公園",
    "latitude": 35.5909809,
    "longitude": 139.47186,
    "address": "",
    "capacity": 100,
    "imageUrl": "https://www.waterworks.metro.tokyo.lg.jp/files/items/18931/Image/152.jpg"
  },
  {
    "id": "water-154",
    "type": "water_supply",
    "name": "成瀬コミュニティセンター",
    "latitude": 35.543542,
    "longitude": 139.472704,
    "address": "",
    "capacity": 100,
    "imageUrl": "https://www.waterworks.metro.tokyo.lg.jp/files/items/18931/Image/153.jpg"
  },
  {
    "id": "water-155",
    "type": "water_supply",
    "name": "市立忠生公園",
    "latitude": 35.5734102,
    "longitude": 139.4235662,
    "address": "",
    "capacity": 100,
    "imageUrl": "https://www.waterworks.metro.tokyo.lg.jp/files/items/18931/Image/154.jpg"
  },
  {
    "id": "water-156",
    "type": "water_supply",
    "name": "市立三輪中央公園",
    "latitude": 35.5739501,
    "longitude": 139.4888159,
    "address": "",
    "capacity": 100,
    "imageUrl": "https://www.waterworks.metro.tokyo.lg.jp/files/items/18931/Image/155.jpg"
  },
  {
    "id": "water-157",
    "type": "water_supply",
    "name": "梶野配水所",
    "latitude": 35.7046375,
    "longitude": 139.526531,
    "address": "",
    "capacity": 1300,
    "imageUrl": "https://www.waterworks.metro.tokyo.lg.jp/files/items/18931/Image/156.jpg"
  },
  {
    "id": "water-158",
    "type": "water_supply",
    "name": "上水南給水所",
    "latitude": 35.711611,
    "longitude": 139.491713,
    "address": "",
    "capacity": 11660,
    "imageUrl": "https://www.waterworks.metro.tokyo.lg.jp/files/items/18931/Image/157.jpg"
  },
  {
    "id": "water-159",
    "type": "water_supply",
    "name": "小川給水所",
    "latitude": 35.7256378,
    "longitude": 139.453172,
    "address": "",
    "capacity": 6580,
    "imageUrl": "https://www.waterworks.metro.tokyo.lg.jp/files/items/18931/Image/158.jpg"
  },
  {
    "id": "water-160",
    "type": "water_supply",
    "name": "市立津田公園",
    "latitude": 35.722887,
    "longitude": 139.470526,
    "address": "",
    "capacity": 100,
    "imageUrl": "https://www.waterworks.metro.tokyo.lg.jp/files/items/18931/Image/159.jpg"
  },
  {
    "id": "water-161",
    "type": "water_supply",
    "name": "市立大坂西公園",
    "latitude": 35.6764482,
    "longitude": 139.3902429,
    "address": "",
    "capacity": 100,
    "imageUrl": "https://www.waterworks.metro.tokyo.lg.jp/files/items/18931/Image/160.jpg"
  },
  {
    "id": "water-162",
    "type": "water_supply",
    "name": "多摩平給水所",
    "latitude": 35.6650353,
    "longitude": 139.382619,
    "address": "",
    "capacity": 3660,
    "imageUrl": "https://www.waterworks.metro.tokyo.lg.jp/files/items/18931/Image/161.jpg"
  },
  {
    "id": "water-163",
    "type": "water_supply",
    "name": "程久保給水所",
    "latitude": 35.64064,
    "longitude": 139.395207,
    "address": "",
    "capacity": 6700,
    "imageUrl": "https://www.waterworks.metro.tokyo.lg.jp/files/items/18931/Image/162.jpg"
  },
  {
    "id": "water-164",
    "type": "water_supply",
    "name": "三沢配水所",
    "latitude": 35.652935,
    "longitude": 139.420362,
    "address": "",
    "capacity": 1490,
    "imageUrl": "https://www.waterworks.metro.tokyo.lg.jp/files/items/18931/Image/163.jpg"
  },
  {
    "id": "water-165",
    "type": "water_supply",
    "name": "日野旭が丘給水所",
    "latitude": 35.662666,
    "longitude": 139.368353,
    "address": "",
    "capacity": 1660,
    "imageUrl": "https://www.waterworks.metro.tokyo.lg.jp/files/items/18931/Image/164.jpg"
  },
  {
    "id": "water-166",
    "type": "water_supply",
    "name": "八坂給水所",
    "latitude": 35.747356,
    "longitude": 139.458482,
    "address": "",
    "capacity": 20000,
    "imageUrl": "https://www.waterworks.metro.tokyo.lg.jp/files/items/18931/Image/165.jpg"
  },
  {
    "id": "water-167",
    "type": "water_supply",
    "name": "東村山浄水場",
    "latitude": 35.7532331,
    "longitude": 139.458674,
    "address": "",
    "capacity": 36000,
    "imageUrl": "https://www.waterworks.metro.tokyo.lg.jp/files/items/18931/Image/166.jpg"
  },
  {
    "id": "water-168",
    "type": "water_supply",
    "name": "美住給水所",
    "latitude": 35.7555303,
    "longitude": 139.461554,
    "address": "",
    "capacity": 2020,
    "imageUrl": "https://www.waterworks.metro.tokyo.lg.jp/files/items/18931/Image/167.jpg"
  },
  {
    "id": "water-169",
    "type": "water_supply",
    "name": "市立東村山運動公園",
    "latitude": 35.7556996,
    "longitude": 139.4901976,
    "address": "",
    "capacity": 1500,
    "imageUrl": "https://www.waterworks.metro.tokyo.lg.jp/files/items/18931/Image/168.jpg"
  },
  {
    "id": "water-170",
    "type": "water_supply",
    "name": "市立秋津小学校",
    "latitude": 35.773108,
    "longitude": 139.482144,
    "address": "",
    "capacity": 100,
    "imageUrl": "https://www.waterworks.metro.tokyo.lg.jp/files/items/18931/Image/169.jpg"
  },
  {
    "id": "water-171",
    "type": "water_supply",
    "name": "東恋ヶ窪配水所",
    "latitude": 35.7065051,
    "longitude": 139.476399,
    "address": "",
    "capacity": 1220,
    "imageUrl": "https://www.waterworks.metro.tokyo.lg.jp/files/items/18931/Image/170.jpg"
  },
  {
    "id": "water-172",
    "type": "water_supply",
    "name": "国分寺北町給水所",
    "latitude": 35.721054,
    "longitude": 139.45038,
    "address": "",
    "capacity": 5800,
    "imageUrl": "https://www.waterworks.metro.tokyo.lg.jp/files/items/18931/Image/171.jpg"
  },
  {
    "id": "water-173",
    "type": "water_supply",
    "name": "国立中給水所",
    "latitude": 35.688163,
    "longitude": 139.442608,
    "address": "",
    "capacity": 2000,
    "imageUrl": "https://www.waterworks.metro.tokyo.lg.jp/files/items/18931/Image/172.jpg"
  },
  {
    "id": "water-174",
    "type": "water_supply",
    "name": "谷保給水所",
    "latitude": 35.6779939,
    "longitude": 139.440914,
    "address": "",
    "capacity": 2000,
    "imageUrl": "https://www.waterworks.metro.tokyo.lg.jp/files/items/18931/Image/173.jpg"
  },
  {
    "id": "water-175",
    "type": "water_supply",
    "name": "芝久保給水所",
    "latitude": 35.7337671,
    "longitude": 139.524477,
    "address": "",
    "capacity": 6030,
    "imageUrl": "https://www.waterworks.metro.tokyo.lg.jp/files/items/18931/Image/174.jpg"
  },
  {
    "id": "water-176",
    "type": "water_supply",
    "name": "保谷町給水所",
    "latitude": 35.7354513,
    "longitude": 139.554782,
    "address": "",
    "capacity": 2910,
    "imageUrl": "https://www.waterworks.metro.tokyo.lg.jp/files/items/18931/Image/175.jpg"
  },
  {
    "id": "water-177",
    "type": "water_supply",
    "name": "西東京栄町配水所",
    "latitude": 35.7516771,
    "longitude": 139.552224,
    "address": "",
    "capacity": 1000,
    "imageUrl": "https://www.waterworks.metro.tokyo.lg.jp/files/items/18931/Image/176.jpg"
  },
  {
    "id": "water-178",
    "type": "water_supply",
    "name": "福生武蔵野台給水所",
    "latitude": 35.751586,
    "longitude": 139.329512,
    "address": "",
    "capacity": 2540,
    "imageUrl": "https://www.waterworks.metro.tokyo.lg.jp/files/items/18931/Image/177.jpg"
  },
  {
    "id": "water-179",
    "type": "water_supply",
    "name": "市立明神下公園",
    "latitude": 35.723895,
    "longitude": 139.330834,
    "address": "",
    "capacity": 1500,
    "imageUrl": "https://www.waterworks.metro.tokyo.lg.jp/files/items/18931/Image/178.jpg"
  },
  {
    "id": "water-180",
    "type": "water_supply",
    "name": "和泉本町給水所",
    "latitude": 35.6429908,
    "longitude": 139.571116,
    "address": "",
    "capacity": 2260,
    "imageUrl": "https://www.waterworks.metro.tokyo.lg.jp/files/items/18931/Image/179.jpg"
  },
  {
    "id": "water-181",
    "type": "water_supply",
    "name": "上北台給水所",
    "latitude": 35.7466078,
    "longitude": 139.413939,
    "address": "",
    "capacity": 5330,
    "imageUrl": "https://www.waterworks.metro.tokyo.lg.jp/files/items/18931/Image/180.jpg"
  },
  {
    "id": "water-182",
    "type": "water_supply",
    "name": "東大和給水所",
    "latitude": 35.7312269,
    "longitude": 139.428196,
    "address": "",
    "capacity": 26660,
    "imageUrl": "https://www.waterworks.metro.tokyo.lg.jp/files/items/18931/Image/181.jpg"
  },
  {
    "id": "water-183",
    "type": "water_supply",
    "name": "清瀬元町配水所",
    "latitude": 35.777687,
    "longitude": 139.517376,
    "address": "",
    "capacity": 600,
    "imageUrl": "https://www.waterworks.metro.tokyo.lg.jp/files/items/18931/Image/182.jpg"
  },
  {
    "id": "water-184",
    "type": "water_supply",
    "name": "市立第３保育園",
    "latitude": 35.7979192,
    "longitude": 139.5391642,
    "address": "",
    "capacity": 100,
    "imageUrl": "https://www.waterworks.metro.tokyo.lg.jp/files/items/18931/Image/183.jpg"
  },
  {
    "id": "water-185",
    "type": "water_supply",
    "name": "清瀬梅園給水所",
    "latitude": 35.770799,
    "longitude": 139.5079632,
    "address": "",
    "capacity": 10000,
    "imageUrl": "https://www.waterworks.metro.tokyo.lg.jp/files/items/18931/Image/184.jpg"
  },
  {
    "id": "water-186",
    "type": "water_supply",
    "name": "南沢給水所",
    "latitude": 35.751937,
    "longitude": 139.525834,
    "address": "",
    "capacity": 3330,
    "imageUrl": "https://www.waterworks.metro.tokyo.lg.jp/files/items/18931/Image/185.jpg"
  },
  {
    "id": "water-187",
    "type": "water_supply",
    "name": "滝山給水所",
    "latitude": 35.7473841,
    "longitude": 139.507342,
    "address": "",
    "capacity": 1960,
    "imageUrl": "https://www.waterworks.metro.tokyo.lg.jp/files/items/18931/Image/186.jpg"
  },
  {
    "id": "water-188",
    "type": "water_supply",
    "name": "学園配水所",
    "latitude": 35.7499647,
    "longitude": 139.390535,
    "address": "",
    "capacity": 1460,
    "imageUrl": "https://www.waterworks.metro.tokyo.lg.jp/files/items/18931/Image/187.jpg"
  },
  {
    "id": "water-189",
    "type": "water_supply",
    "name": "中藤配水所",
    "latitude": 35.7588747,
    "longitude": 139.393662,
    "address": "",
    "capacity": 950,
    "imageUrl": "https://www.waterworks.metro.tokyo.lg.jp/files/items/18931/Image/188.jpg"
  },
  {
    "id": "water-190",
    "type": "water_supply",
    "name": "市立中原公園",
    "latitude": 35.7568554,
    "longitude": 139.363293,
    "address": "",
    "capacity": 1500,
    "imageUrl": "https://www.waterworks.metro.tokyo.lg.jp/files/items/18931/Image/189.jpg"
  },
  {
    "id": "water-191",
    "type": "water_supply",
    "name": "桜ヶ丘配水所",
    "latitude": 35.6437424,
    "longitude": 139.444107,
    "address": "",
    "capacity": 1500,
    "imageUrl": "https://www.waterworks.metro.tokyo.lg.jp/files/items/18931/Image/190.jpg"
  },
  {
    "id": "water-192",
    "type": "water_supply",
    "name": "落合配水所",
    "latitude": 35.62455,
    "longitude": 139.413627,
    "address": "",
    "capacity": 100,
    "imageUrl": "https://www.waterworks.metro.tokyo.lg.jp/files/items/18931/Image/191.jpg"
  },
  {
    "id": "water-193",
    "type": "water_supply",
    "name": "愛宕配水所",
    "latitude": 35.634838,
    "longitude": 139.439535,
    "address": "",
    "capacity": 1140,
    "imageUrl": "https://www.waterworks.metro.tokyo.lg.jp/files/items/18931/Image/192.jpg"
  },
  {
    "id": "water-194",
    "type": "water_supply",
    "name": "南野給水所",
    "latitude": 35.608639,
    "longitude": 139.431015,
    "address": "",
    "capacity": 3360,
    "imageUrl": "https://www.waterworks.metro.tokyo.lg.jp/files/items/18931/Image/193.jpg"
  },
  {
    "id": "water-195",
    "type": "water_supply",
    "name": "聖ヶ丘給水所",
    "latitude": 35.63037,
    "longitude": 139.46307,
    "address": "",
    "capacity": 14000,
    "imageUrl": "https://www.waterworks.metro.tokyo.lg.jp/files/items/18931/Image/194.jpg"
  },
  {
    "id": "water-196",
    "type": "water_supply",
    "name": "市立並木公園",
    "latitude": 35.645741,
    "longitude": 139.433745,
    "address": "",
    "capacity": 1500,
    "imageUrl": "https://www.waterworks.metro.tokyo.lg.jp/files/items/18931/Image/195.jpg"
  },
  {
    "id": "water-197",
    "type": "water_supply",
    "name": "坂浜配水所",
    "latitude": 35.615837,
    "longitude": 139.487899,
    "address": "",
    "capacity": 1510,
    "imageUrl": "https://www.waterworks.metro.tokyo.lg.jp/files/items/18931/Image/196.jpg"
  },
  {
    "id": "water-198",
    "type": "water_supply",
    "name": "向陽台給水所",
    "latitude": 35.6437222,
    "longitude": 139.493028,
    "address": "",
    "capacity": 2000,
    "imageUrl": "https://www.waterworks.metro.tokyo.lg.jp/files/items/18931/Image/197.jpg"
  },
  {
    "id": "water-199",
    "type": "water_supply",
    "name": "若葉台給水所",
    "latitude": 35.623984,
    "longitude": 139.473903,
    "address": "",
    "capacity": 2160,
    "imageUrl": "https://www.waterworks.metro.tokyo.lg.jp/files/items/18931/Image/198.jpg"
  },
  {
    "id": "water-200",
    "type": "water_supply",
    "name": "秋留台給水所",
    "latitude": 35.7321865,
    "longitude": 139.284454,
    "address": "",
    "capacity": 2000,
    "imageUrl": "https://www.waterworks.metro.tokyo.lg.jp/files/items/18931/Image/199.jpg"
  },
  {
    "id": "water-201",
    "type": "water_supply",
    "name": "菅生給水所",
    "latitude": 35.745663,
    "longitude": 139.287219,
    "address": "",
    "capacity": 2000,
    "imageUrl": "https://www.waterworks.metro.tokyo.lg.jp/files/items/18931/Image/200.jpg"
  },
  {
    "id": "water-202",
    "type": "water_supply",
    "name": "上代継浄水所",
    "latitude": 35.71888,
    "longitude": 139.279151,
    "address": "",
    "capacity": 200,
    "imageUrl": "https://www.waterworks.metro.tokyo.lg.jp/files/items/18931/Image/201.jpg"
  },
  {
    "id": "water-203",
    "type": "water_supply",
    "name": "戸倉給水所",
    "latitude": 35.726467,
    "longitude": 139.20192,
    "address": "",
    "capacity": 1660,
    "imageUrl": "https://www.waterworks.metro.tokyo.lg.jp/files/items/18931/Image/202.jpg"
  },
  {
    "id": "water-204",
    "type": "water_supply",
    "name": "小峰台配水所",
    "latitude": 35.719041,
    "longitude": 139.233864,
    "address": "",
    "capacity": 160,
    "imageUrl": "https://www.waterworks.metro.tokyo.lg.jp/files/items/18931/Image/203.jpg"
  },
  {
    "id": "water-205",
    "type": "water_supply",
    "name": "伊奈配水所",
    "latitude": 35.7348684,
    "longitude": 139.252211,
    "address": "",
    "capacity": 130,
    "imageUrl": "https://www.waterworks.metro.tokyo.lg.jp/files/items/18931/Image/204.jpg"
  },
  {
    "id": "water-206",
    "type": "water_supply",
    "name": "石畑給水所",
    "latitude": 35.776763,
    "longitude": 139.363858,
    "address": "",
    "capacity": 10000,
    "imageUrl": "https://www.waterworks.metro.tokyo.lg.jp/files/items/18931/Image/205.jpg"
  },
  {
    "id": "water-207",
    "type": "water_supply",
    "name": "文化の森給水所",
    "latitude": 35.74752,
    "longitude": 139.25519,
    "address": "",
    "capacity": 2000,
    "imageUrl": "https://www.waterworks.metro.tokyo.lg.jp/files/items/18931/Image/206.jpg"
  },
  {
    "id": "water-208",
    "type": "water_supply",
    "name": "第一浄水場",
    "latitude": 35.7152429,
    "longitude": 139.566641,
    "address": "",
    "imageUrl": "https://www.waterworks.metro.tokyo.lg.jp/files/items/18931/Image/207.jpg"
  },
  {
    "id": "water-209",
    "type": "water_supply",
    "name": "第二浄水場",
    "latitude": 35.709673,
    "longitude": 139.53636,
    "address": "",
    "imageUrl": "https://www.waterworks.metro.tokyo.lg.jp/files/items/18931/Image/208.jpg"
  },
  {
    "id": "water-210",
    "type": "water_supply",
    "name": "西部配水場",
    "latitude": 35.712165,
    "longitude": 139.347832,
    "address": "",
    "capacity": 2780,
    "imageUrl": "https://www.waterworks.metro.tokyo.lg.jp/files/items/18931/Image/209.jpg"
  },
  {
    "id": "water-211",
    "type": "water_supply",
    "name": "東部配水場",
    "latitude": 35.708692,
    "longitude": 139.369836,
    "address": "",
    "capacity": 2160,
    "imageUrl": "https://www.waterworks.metro.tokyo.lg.jp/files/items/18931/Image/210.jpg"
  },
  {
    "id": "water-212",
    "type": "water_supply",
    "name": "第一配水場",
    "latitude": 35.7647394,
    "longitude": 139.319607,
    "address": "",
    "capacity": 2060,
    "imageUrl": "https://www.waterworks.metro.tokyo.lg.jp/files/items/18931/Image/211.jpg"
  },
  {
    "id": "water-213",
    "type": "water_supply",
    "name": "小作浄水場",
    "latitude": 35.7761234,
    "longitude": 139.295803,
    "address": "",
    "capacity": 14260,
    "imageUrl": "https://www.waterworks.metro.tokyo.lg.jp/files/items/18931/Image/212.jpg"
  },
  {
    "id": "evacuation-214",
    "type": "evacuation",
    "name": "北の丸公園",
    "latitude": 35.69198,
    "longitude": 139.750564,
    "address": "千代田区北の丸公園1ほか"
  },
  {
    "id": "evacuation-215",
    "type": "evacuation",
    "name": "皇居東御苑",
    "latitude": 35.686863,
    "longitude": 139.757162,
    "address": "千代田区千代田1"
  },
  {
    "id": "evacuation-216",
    "type": "evacuation",
    "name": "皇居外苑",
    "latitude": 35.680258,
    "longitude": 139.757693,
    "address": "千代田区皇居外苑1ほか"
  },
  {
    "id": "evacuation-217",
    "type": "evacuation",
    "name": "日比谷公園",
    "latitude": 35.673576,
    "longitude": 139.755893,
    "address": "千代田区日比谷公園1"
  },
  {
    "id": "evacuation-218",
    "type": "evacuation",
    "name": "真田堀運動場",
    "latitude": 35.68278,
    "longitude": 139.731059,
    "address": "千代田区紀尾井町5ほか"
  },
  {
    "id": "evacuation-219",
    "type": "evacuation",
    "name": "外濠公園",
    "latitude": 35.68864,
    "longitude": 139.73097,
    "address": "千代田区五番町先"
  },
  {
    "id": "evacuation-220",
    "type": "evacuation",
    "name": "麹町小学校",
    "latitude": 35.685573,
    "longitude": 139.739317,
    "address": "千代田区麹町２－８"
  },
  {
    "id": "evacuation-221",
    "type": "evacuation",
    "name": "九段小学校",
    "latitude": 35.690366,
    "longitude": 139.740845,
    "address": "千代田区三番町１６"
  },
  {
    "id": "evacuation-222",
    "type": "evacuation",
    "name": "番町小学校",
    "latitude": 35.688163,
    "longitude": 139.734126,
    "address": "千代田区六番町８"
  },
  {
    "id": "evacuation-223",
    "type": "evacuation",
    "name": "麹町中学校",
    "latitude": 35.680493,
    "longitude": 139.73867,
    "address": "千代田区平河町２－５－１"
  },
  {
    "id": "evacuation-224",
    "type": "evacuation",
    "name": "富士見みらい館",
    "latitude": 35.697182,
    "longitude": 139.746403,
    "address": "千代田区富士見１－１０－３"
  },
  {
    "id": "evacuation-225",
    "type": "evacuation",
    "name": "神田一橋中学校",
    "latitude": 35.694133,
    "longitude": 139.756828,
    "address": "千代田区一ツ橋２－６－１４"
  },
  {
    "id": "evacuation-226",
    "type": "evacuation",
    "name": "神田さくら館",
    "latitude": 35.693327,
    "longitude": 139.768393,
    "address": "千代田区神田司町２－１６"
  },
  {
    "id": "evacuation-227",
    "type": "evacuation",
    "name": "昌平童夢館",
    "latitude": 35.701306,
    "longitude": 139.769766,
    "address": "千代田区外神田３－４－７"
  },
  {
    "id": "evacuation-228",
    "type": "evacuation",
    "name": "アーツ千代田3331",
    "latitude": 35.704267,
    "longitude": 139.770632,
    "address": "千代田区外神田６－１１－１４"
  },
  {
    "id": "evacuation-229",
    "type": "evacuation",
    "name": "ちよだパークサイドプラザ",
    "latitude": 35.699212,
    "longitude": 139.778598,
    "address": "千代田区神田和泉町１"
  },
  {
    "id": "evacuation-230",
    "type": "evacuation",
    "name": "旧今川中学校",
    "latitude": 35.691178,
    "longitude": 139.773051,
    "address": "千代田区鍛冶町２－４－２"
  },
  {
    "id": "evacuation-231",
    "type": "evacuation",
    "name": "都立一橋高校",
    "latitude": 35.694526,
    "longitude": 139.780984,
    "address": "千代田区東神田１－１２－１３"
  },
  {
    "id": "evacuation-232",
    "type": "evacuation",
    "name": "区立スポーツセンター",
    "latitude": 35.689298,
    "longitude": 139.767632,
    "address": "千代田区内神田２－１－８"
  },
  {
    "id": "evacuation-233",
    "type": "evacuation",
    "name": "岩本町ほほえみプラザ",
    "latitude": 35.694328,
    "longitude": 139.777812,
    "address": "千代田区岩本町２－１５－３"
  },
  {
    "id": "evacuation-234",
    "type": "evacuation",
    "name": "明治大学",
    "latitude": 35.697323,
    "longitude": 139.761579,
    "address": "千代田区神田駿河台１－１"
  },
  {
    "id": "evacuation-235",
    "type": "evacuation",
    "name": "上智大学",
    "latitude": 35.68511,
    "longitude": 139.73164,
    "address": "千代田区紀尾井町７－１"
  },
  {
    "id": "evacuation-236",
    "type": "evacuation",
    "name": "日本大学会館",
    "latitude": 35.691261,
    "longitude": 139.737391,
    "address": "千代田区九段南４－８－２４"
  },
  {
    "id": "evacuation-237",
    "type": "evacuation",
    "name": "日本大学通信教育学部",
    "latitude": 35.69164,
    "longitude": 139.73788,
    "address": "千代田区九段南４－８－２８"
  },
  {
    "id": "evacuation-238",
    "type": "evacuation",
    "name": "日本大学歯学部",
    "latitude": 35.698122,
    "longitude": 139.764223,
    "address": "千代田区神田駿河台１－８－１３"
  },
  {
    "id": "evacuation-239",
    "type": "evacuation",
    "name": "日本大学理工学部①",
    "latitude": 35.697587,
    "longitude": 139.763601,
    "address": "千代田区神田駿河台１－８－１４"
  },
  {
    "id": "evacuation-240",
    "type": "evacuation",
    "name": "日本大学理工学部②",
    "latitude": 35.697337,
    "longitude": 139.765328,
    "address": "千代田区神田駿河台３－１１－２"
  },
  {
    "id": "evacuation-241",
    "type": "evacuation",
    "name": "日本大学経済学部",
    "latitude": 35.700234,
    "longitude": 139.756266,
    "address": "千代田区神田三崎町１－３－２"
  },
  {
    "id": "evacuation-242",
    "type": "evacuation",
    "name": "日本大学法学部①",
    "latitude": 35.699859,
    "longitude": 139.75544,
    "address": "千代田区神田三崎町２－１－３"
  },
  {
    "id": "evacuation-243",
    "type": "evacuation",
    "name": "日本大学法学部②",
    "latitude": 35.699359,
    "longitude": 139.755349,
    "address": "千代田区西神田２－７－１０"
  },
  {
    "id": "evacuation-244",
    "type": "evacuation",
    "name": "京橋区民館",
    "latitude": 35.676558,
    "longitude": 139.771358,
    "address": "中央区京橋2-6-7"
  },
  {
    "id": "evacuation-245",
    "type": "evacuation",
    "name": "京橋プラザ",
    "latitude": 35.673233,
    "longitude": 139.771678,
    "address": "中央区銀座1-25-3"
  },
  {
    "id": "evacuation-246",
    "type": "evacuation",
    "name": "泰明小学校",
    "latitude": 35.672333,
    "longitude": 139.761326,
    "address": "中央区銀座5-1-13"
  },
  {
    "id": "evacuation-247",
    "type": "evacuation",
    "name": "銀座中学校",
    "latitude": 35.665698,
    "longitude": 139.765034,
    "address": "中央区銀座8-19-15"
  },
  {
    "id": "evacuation-248",
    "type": "evacuation",
    "name": "中央小学校",
    "latitude": 35.672201,
    "longitude": 139.778753,
    "address": "中央区湊1-4-1"
  },
  {
    "id": "evacuation-249",
    "type": "evacuation",
    "name": "明石小学校",
    "latitude": 35.668438,
    "longitude": 139.776409,
    "address": "中央区明石町1-15"
  },
  {
    "id": "evacuation-250",
    "type": "evacuation",
    "name": "京橋築地小学校",
    "latitude": 35.667959,
    "longitude": 139.771414,
    "address": "中央区築地2-13-1"
  },
  {
    "id": "evacuation-251",
    "type": "evacuation",
    "name": "京華スクエア",
    "latitude": 35.674903,
    "longitude": 139.775664,
    "address": "中央区八丁堀3-17-9"
  },
  {
    "id": "evacuation-252",
    "type": "evacuation",
    "name": "明正小学校",
    "latitude": 35.67597,
    "longitude": 139.781569,
    "address": "中央区新川2-13-4"
  },
  {
    "id": "evacuation-253",
    "type": "evacuation",
    "name": "常盤小学校",
    "latitude": 35.688476,
    "longitude": 139.770558,
    "address": "中央区日本橋本石町4-4-26"
  },
  {
    "id": "evacuation-254",
    "type": "evacuation",
    "name": "十思スクエア",
    "latitude": 35.690646,
    "longitude": 139.777104,
    "address": "中央区日本橋小伝馬町5-1"
  },
  {
    "id": "evacuation-255",
    "type": "evacuation",
    "name": "日本橋小学校",
    "latitude": 35.684677,
    "longitude": 139.78141,
    "address": "中央区日本橋人形町1-1-17"
  },
  {
    "id": "evacuation-256",
    "type": "evacuation",
    "name": "有馬小学校",
    "latitude": 35.683272,
    "longitude": 139.787993,
    "address": "中央区日本橋蛎殻町2-10-23"
  },
  {
    "id": "evacuation-257",
    "type": "evacuation",
    "name": "久松小学校",
    "latitude": 35.689029,
    "longitude": 139.784316,
    "address": "中央区日本橋久松町7-2"
  },
  {
    "id": "evacuation-258",
    "type": "evacuation",
    "name": "日本橋中学校",
    "latitude": 35.692498,
    "longitude": 139.787096,
    "address": "中央区東日本橋1-10-1"
  },
  {
    "id": "evacuation-259",
    "type": "evacuation",
    "name": "阪本小学校",
    "latitude": 35.67985,
    "longitude": 139.77681,
    "address": "中央区日本橋兜町15-18"
  },
  {
    "id": "evacuation-260",
    "type": "evacuation",
    "name": "佃島小学校",
    "latitude": 35.668626,
    "longitude": 139.78458,
    "address": "中央区佃2-3-1"
  },
  {
    "id": "evacuation-261",
    "type": "evacuation",
    "name": "佃中学校",
    "latitude": 35.668054,
    "longitude": 139.785119,
    "address": "中央区佃2-3-2"
  },
  {
    "id": "evacuation-262",
    "type": "evacuation",
    "name": "月島第一小学校",
    "latitude": 35.660632,
    "longitude": 139.780067,
    "address": "中央区月島4-15-1"
  },
  {
    "id": "evacuation-263",
    "type": "evacuation",
    "name": "月島第二小学校",
    "latitude": 35.660249,
    "longitude": 139.775825,
    "address": "中央区勝どき1-12-2"
  },
  {
    "id": "evacuation-264",
    "type": "evacuation",
    "name": "月島第三小学校",
    "latitude": 35.658852,
    "longitude": 139.785539,
    "address": "中央区晴海1-4-1"
  },
  {
    "id": "evacuation-265",
    "type": "evacuation",
    "name": "晴海中学校",
    "latitude": 35.659827,
    "longitude": 139.784584,
    "address": "中央区晴海1-5-3"
  },
  {
    "id": "evacuation-266",
    "type": "evacuation",
    "name": "豊海小学校",
    "latitude": 35.653533,
    "longitude": 139.771473,
    "address": "中央区豊海3-1"
  },
  {
    "id": "evacuation-267",
    "type": "evacuation",
    "name": "中央区役所",
    "latitude": 35.670585,
    "longitude": 139.772006,
    "address": "中央区築地1-1-1"
  },
  {
    "id": "evacuation-268",
    "type": "evacuation",
    "name": "日本橋区民センター",
    "latitude": 35.682472,
    "longitude": 139.784308,
    "address": "中央区日本橋蛎殻町1-31-1"
  },
  {
    "id": "evacuation-269",
    "type": "evacuation",
    "name": "月島区民センター",
    "latitude": 35.662063,
    "longitude": 139.78215,
    "address": "中央区月島4-1-1"
  },
  {
    "id": "evacuation-270",
    "type": "evacuation",
    "name": "ほっとプラザはるみ",
    "latitude": 35.65205,
    "longitude": 139.774787,
    "address": "中央区晴海5-2-3"
  },
  {
    "id": "evacuation-271",
    "type": "evacuation",
    "name": "晴海地区",
    "latitude": 35.653282,
    "longitude": 139.779028,
    "address": "中央区晴海"
  },
  {
    "id": "evacuation-272",
    "type": "evacuation",
    "name": "新川ツインビル地区",
    "latitude": 35.674497,
    "longitude": 139.784437,
    "address": "中央区新川"
  },
  {
    "id": "evacuation-273",
    "type": "evacuation",
    "name": "佃リバーシティ地区",
    "latitude": 35.669372,
    "longitude": 139.784976,
    "address": "中央区佃"
  },
  {
    "id": "evacuation-274",
    "type": "evacuation",
    "name": "あかつき公園一帯",
    "latitude": 35.666349,
    "longitude": 139.776264,
    "address": "中央区築地、明石町"
  },
  {
    "id": "evacuation-275",
    "type": "evacuation",
    "name": "生涯学習センター",
    "latitude": 35.66556,
    "longitude": 139.757102,
    "address": "港区新橋3-16-3"
  },
  {
    "id": "evacuation-276",
    "type": "evacuation",
    "name": "障害保健福祉センター",
    "latitude": 35.651643,
    "longitude": 139.755555,
    "address": "港区芝1-8-23"
  },
  {
    "id": "evacuation-277",
    "type": "evacuation",
    "name": "芝小学校",
    "latitude": 35.651302,
    "longitude": 139.75018,
    "address": "港区芝2-21-3"
  },
  {
    "id": "evacuation-278",
    "type": "evacuation",
    "name": "三田図書館",
    "latitude": 35.645067,
    "longitude": 139.742457,
    "address": "港区芝5-36-4"
  },
  {
    "id": "evacuation-279",
    "type": "evacuation",
    "name": "御成門中学校",
    "latitude": 35.661632,
    "longitude": 139.750369,
    "address": "港区西新橋3-25-30"
  },
  {
    "id": "evacuation-280",
    "type": "evacuation",
    "name": "神明子ども中高生プラザ・神明いきいきプラザ",
    "latitude": 35.658765,
    "longitude": 139.757662,
    "address": "港区浜松町1-6-7"
  },
  {
    "id": "evacuation-281",
    "type": "evacuation",
    "name": "エコプラザ",
    "latitude": 35.658849,
    "longitude": 139.756888,
    "address": "港区浜松町1-13-1"
  },
  {
    "id": "evacuation-282",
    "type": "evacuation",
    "name": "御成門小学校",
    "latitude": 35.660984,
    "longitude": 139.749519,
    "address": "港区芝公園3-2-4"
  },
  {
    "id": "evacuation-283",
    "type": "evacuation",
    "name": "みなと図書館",
    "latitude": 35.659896,
    "longitude": 139.750124,
    "address": "港区芝公園3-2-25"
  },
  {
    "id": "evacuation-284",
    "type": "evacuation",
    "name": "三田中学校",
    "latitude": 35.645227,
    "longitude": 139.740847,
    "address": "港区三田4-13-15"
  },
  {
    "id": "evacuation-285",
    "type": "evacuation",
    "name": "スポーツセンター",
    "latitude": 35.646636,
    "longitude": 139.751789,
    "address": "港区芝浦1-16-1"
  },
  {
    "id": "evacuation-286",
    "type": "evacuation",
    "name": "高輪三丁目・四丁目・御殿山地区",
    "latitude": 35.630621,
    "longitude": 139.735163,
    "address": "港区高輪、品川区北品川"
  },
  {
    "id": "evacuation-287",
    "type": "evacuation",
    "name": "芝浦小学校",
    "latitude": 35.638159,
    "longitude": 139.746311,
    "address": "港区芝浦4-8-18"
  },
  {
    "id": "evacuation-288",
    "type": "evacuation",
    "name": "芝浦アイランド児童高齢者交流プラザ",
    "latitude": 35.640373,
    "longitude": 139.752419,
    "address": "港区芝浦4-20-1"
  },
  {
    "id": "evacuation-289",
    "type": "evacuation",
    "name": "みなとリサイクル清掃事務所",
    "latitude": 35.634389,
    "longitude": 139.751393,
    "address": "港区港南3-9-59"
  },
  {
    "id": "evacuation-290",
    "type": "evacuation",
    "name": "港南中学校",
    "latitude": 35.631196,
    "longitude": 139.749112,
    "address": "港区港南4-3-3"
  },
  {
    "id": "evacuation-291",
    "type": "evacuation",
    "name": "港南こども中高生プラザ(プラリバ）",
    "latitude": 35.631148,
    "longitude": 139.749908,
    "address": "港区港南4-3-7"
  },
  {
    "id": "evacuation-292",
    "type": "evacuation",
    "name": "港南図書館",
    "latitude": 35.632963,
    "longitude": 139.749559,
    "address": "港区港南3-3-17"
  },
  {
    "id": "evacuation-293",
    "type": "evacuation",
    "name": "港南の郷",
    "latitude": 35.633288,
    "longitude": 139.749211,
    "address": "港区港南3-3-23"
  },
  {
    "id": "evacuation-294",
    "type": "evacuation",
    "name": "港南小学校",
    "latitude": 35.62923,
    "longitude": 139.749645,
    "address": "港区港南4-3-28"
  },
  {
    "id": "evacuation-295",
    "type": "evacuation",
    "name": "お台場学園小・中学校",
    "latitude": 35.633646,
    "longitude": 139.777123,
    "address": "港区台場1-1-5"
  },
  {
    "id": "evacuation-296",
    "type": "evacuation",
    "name": "台場児童館",
    "latitude": 35.630066,
    "longitude": 139.777042,
    "address": "港区台場1-5-1"
  },
  {
    "id": "evacuation-297",
    "type": "evacuation",
    "name": "福祉プラザさくら川",
    "latitude": 35.661188,
    "longitude": 139.753786,
    "address": "港区新橋6-19-2"
  },
  {
    "id": "evacuation-298",
    "type": "evacuation",
    "name": "虎ノ門いきいきプラザ",
    "latitude": 35.667906,
    "longitude": 139.748713,
    "address": "港区虎ノ門1-21-10"
  },
  {
    "id": "evacuation-299",
    "type": "evacuation",
    "name": "三田いきいきプラザ",
    "latitude": 35.648753,
    "longitude": 139.749744,
    "address": "港区芝4-1-17"
  },
  {
    "id": "evacuation-300",
    "type": "evacuation",
    "name": "赤羽小学校",
    "latitude": 35.653232,
    "longitude": 139.742522,
    "address": "港区三田1-4-52"
  },
  {
    "id": "evacuation-301",
    "type": "evacuation",
    "name": "麻布小学校",
    "latitude": 35.661831,
    "longitude": 139.738714,
    "address": "港区麻布台1-5-15"
  },
  {
    "id": "evacuation-302",
    "type": "evacuation",
    "name": "麻布区民センター",
    "latitude": 35.660737,
    "longitude": 139.735053,
    "address": "港区六本木5-16-45"
  },
  {
    "id": "evacuation-303",
    "type": "evacuation",
    "name": "六本木中学校",
    "latitude": 35.660829,
    "longitude": 139.732256,
    "address": "港区六本木6-8-16"
  },
  {
    "id": "evacuation-304",
    "type": "evacuation",
    "name": "旧飯倉小学校",
    "latitude": 35.658164,
    "longitude": 139.742563,
    "address": "港区東麻布2-1-1"
  },
  {
    "id": "evacuation-305",
    "type": "evacuation",
    "name": "飯倉いきいきプラザ",
    "latitude": 35.656904,
    "longitude": 139.740889,
    "address": "港区東麻布2-16-11"
  },
  {
    "id": "evacuation-306",
    "type": "evacuation",
    "name": "南麻布いきいきプラザ",
    "latitude": 35.651435,
    "longitude": 139.735101,
    "address": "港区南麻布1-5-26"
  },
  {
    "id": "evacuation-307",
    "type": "evacuation",
    "name": "東町小学校",
    "latitude": 35.650872,
    "longitude": 139.735835,
    "address": "港区南麻布1-8-11"
  },
  {
    "id": "evacuation-308",
    "type": "evacuation",
    "name": "ありすいきいきプラザ・麻布子ども中高生プラザ",
    "latitude": 35.651038,
    "longitude": 139.72741,
    "address": "港区南麻布4-6-7"
  },
  {
    "id": "evacuation-309",
    "type": "evacuation",
    "name": "本村小学校",
    "latitude": 35.649818,
    "longitude": 139.72996,
    "address": "港区南麻布3-9-33"
  },
  {
    "id": "evacuation-310",
    "type": "evacuation",
    "name": "笄小学校",
    "latitude": 35.656504,
    "longitude": 139.724918,
    "address": "港区西麻布3-11-16"
  },
  {
    "id": "evacuation-311",
    "type": "evacuation",
    "name": "高陵中学校",
    "latitude": 35.656898,
    "longitude": 139.720394,
    "address": "港区西麻布4-14-8"
  },
  {
    "id": "evacuation-312",
    "type": "evacuation",
    "name": "南山小学校",
    "latitude": 35.657257,
    "longitude": 139.731123,
    "address": "港区元麻布3-8-15"
  },
  {
    "id": "evacuation-313",
    "type": "evacuation",
    "name": "赤坂区民センター",
    "latitude": 35.674749,
    "longitude": 139.731634,
    "address": "港区赤坂4-18-13"
  },
  {
    "id": "evacuation-314",
    "type": "evacuation",
    "name": "サン・サン赤坂",
    "latitude": 35.66976,
    "longitude": 139.737544,
    "address": "港区赤坂6-6-14"
  },
  {
    "id": "evacuation-315",
    "type": "evacuation",
    "name": "青山中学校",
    "latitude": 35.674193,
    "longitude": 139.722154,
    "address": "港区北青山1-1-9"
  },
  {
    "id": "evacuation-316",
    "type": "evacuation",
    "name": "青山いきいきプラザ",
    "latitude": 35.669213,
    "longitude": 139.721211,
    "address": "港区南青山2-16-5"
  },
  {
    "id": "evacuation-317",
    "type": "evacuation",
    "name": "青山小学校",
    "latitude": 35.669872,
    "longitude": 139.719059,
    "address": "港区南青山2-21-2"
  },
  {
    "id": "evacuation-318",
    "type": "evacuation",
    "name": "青南いきいきプラザ",
    "latitude": 35.666466,
    "longitude": 139.717313,
    "address": "港区南青山4-10-1"
  },
  {
    "id": "evacuation-319",
    "type": "evacuation",
    "name": "青南小学校",
    "latitude": 35.663505,
    "longitude": 139.716144,
    "address": "港区南青山4-21-15"
  },
  {
    "id": "evacuation-320",
    "type": "evacuation",
    "name": "豊岡いきいきプラザ",
    "latitude": 35.646502,
    "longitude": 139.739662,
    "address": "港区三田5-7-7"
  },
  {
    "id": "evacuation-321",
    "type": "evacuation",
    "name": "高輪区民センター",
    "latitude": 35.64195,
    "longitude": 139.734104,
    "address": "港区高輪1-16-25"
  },
  {
    "id": "evacuation-322",
    "type": "evacuation",
    "name": "高輪子ども中高生プラザ",
    "latitude": 35.642419,
    "longitude": 139.734826,
    "address": "港区高輪1-4-35"
  },
  {
    "id": "evacuation-323",
    "type": "evacuation",
    "name": "高輪台小学校",
    "latitude": 35.636238,
    "longitude": 139.734348,
    "address": "港区高輪2-8-24"
  },
  {
    "id": "evacuation-324",
    "type": "evacuation",
    "name": "高輪いきいきプラザ",
    "latitude": 35.633251,
    "longitude": 139.735583,
    "address": "港区高輪3-18-15"
  },
  {
    "id": "evacuation-325",
    "type": "evacuation",
    "name": "白金いきいきプラザ",
    "latitude": 35.644894,
    "longitude": 139.731074,
    "address": "港区白金3-10-12"
  },
  {
    "id": "evacuation-326",
    "type": "evacuation",
    "name": "旧三光小学校",
    "latitude": 35.644269,
    "longitude": 139.729135,
    "address": "港区白金3-18-2"
  },
  {
    "id": "evacuation-327",
    "type": "evacuation",
    "name": "旧神応小学校",
    "latitude": 35.643634,
    "longitude": 139.724507,
    "address": "港区白金6-9-5"
  },
  {
    "id": "evacuation-328",
    "type": "evacuation",
    "name": "白金小学校",
    "latitude": 35.636812,
    "longitude": 139.72856,
    "address": "港区白金台1-4-26"
  },
  {
    "id": "evacuation-329",
    "type": "evacuation",
    "name": "白金台いきいきプラザ",
    "latitude": 35.637614,
    "longitude": 139.725057,
    "address": "港区白金台4-8-5"
  },
  {
    "id": "evacuation-330",
    "type": "evacuation",
    "name": "芝浦港南区民センター",
    "latitude": 35.640524,
    "longitude": 139.74866,
    "address": "港区芝浦4-13-1"
  },
  {
    "id": "evacuation-331",
    "type": "evacuation",
    "name": "港南いきいきプラザ",
    "latitude": 35.629715,
    "longitude": 139.747075,
    "address": "港区港南4-2-1"
  },
  {
    "id": "evacuation-332",
    "type": "evacuation",
    "name": "台場区民センター",
    "latitude": 35.629796,
    "longitude": 139.777012,
    "address": "港区台場1-5-1"
  },
  {
    "id": "evacuation-333",
    "type": "evacuation",
    "name": "西麻布いきいきプラザ",
    "latitude": 35.660855,
    "longitude": 139.722721,
    "address": "港区西麻布2-13-3"
  },
  {
    "id": "evacuation-334",
    "type": "evacuation",
    "name": "赤坂小学校",
    "latitude": 35.669308,
    "longitude": 139.731031,
    "address": "港区赤坂8-13-29"
  },
  {
    "id": "evacuation-335",
    "type": "evacuation",
    "name": "赤坂中学校",
    "latitude": 35.668009,
    "longitude": 139.731015,
    "address": "港区赤坂9-2-3"
  },
  {
    "id": "evacuation-336",
    "type": "evacuation",
    "name": "赤坂いきいきプラザ",
    "latitude": 35.670358,
    "longitude": 139.734939,
    "address": "港区赤坂6-4-8"
  },
  {
    "id": "evacuation-337",
    "type": "evacuation",
    "name": "御田小学校",
    "latitude": 35.643172,
    "longitude": 139.738034,
    "address": "港区三田4-11-38"
  },
  {
    "id": "evacuation-338",
    "type": "evacuation",
    "name": "白金の丘学園白金の丘小・中学校",
    "latitude": 35.643626,
    "longitude": 139.72684,
    "address": "港区白金4-1-12"
  },
  {
    "id": "evacuation-339",
    "type": "evacuation",
    "name": "高松中学校",
    "latitude": 35.640817,
    "longitude": 139.733771,
    "address": "港区高輪1-16-25"
  },
  {
    "id": "evacuation-340",
    "type": "evacuation",
    "name": "芝公園・慶応大学一帯",
    "latitude": 35.657379,
    "longitude": 139.74725,
    "address": "港区芝公園、三田"
  },
  {
    "id": "evacuation-341",
    "type": "evacuation",
    "name": "有栖川宮記念公園一帯",
    "latitude": 35.651677,
    "longitude": 139.726501,
    "address": "港区南麻布"
  },
  {
    "id": "evacuation-342",
    "type": "evacuation",
    "name": "青山墓地一帯",
    "latitude": 35.665759,
    "longitude": 139.723035,
    "address": "港区南青山、六本木"
  },
  {
    "id": "evacuation-343",
    "type": "evacuation",
    "name": "迎賓館一帯",
    "latitude": 35.680234,
    "longitude": 139.728751,
    "address": "港区元赤坂、新宿区南元町、四谷、若葉"
  },
  {
    "id": "evacuation-344",
    "type": "evacuation",
    "name": "明治神宮外苑地区",
    "latitude": 35.677753,
    "longitude": 139.717129,
    "address": "港区北青山、新宿区霞ヶ丘町、渋谷区神宮前、千駄ケ谷"
  },
  {
    "id": "evacuation-345",
    "type": "evacuation",
    "name": "札の辻スクエア(産業振興センター)",
    "latitude": 35.645067,
    "longitude": 139.742457,
    "address": "港区芝5-36-4"
  },
  {
    "id": "evacuation-346",
    "type": "evacuation",
    "name": "芝浜小学校",
    "latitude": 35.646339,
    "longitude": 139.748823,
    "address": "港区芝浦1-16-31"
  },
  {
    "id": "evacuation-347",
    "type": "evacuation",
    "name": "戸山公園一帯",
    "latitude": 35.704016,
    "longitude": 139.713567,
    "address": "新宿区大久保、戸山"
  },
  {
    "id": "evacuation-348",
    "type": "evacuation",
    "name": "新宿御苑",
    "latitude": 35.685442,
    "longitude": 139.710541,
    "address": "新宿区内藤町"
  },
  {
    "id": "evacuation-349",
    "type": "evacuation",
    "name": "新宿中央公園・高層ビル群一帯",
    "latitude": 35.691195,
    "longitude": 139.690472,
    "address": "新宿区西新宿"
  },
  {
    "id": "evacuation-350",
    "type": "evacuation",
    "name": "百人町三・四丁目地区",
    "latitude": 35.706049,
    "longitude": 139.698232,
    "address": "新宿区百人町"
  },
  {
    "id": "evacuation-351",
    "type": "evacuation",
    "name": "早稲田大学早稲田キャンパス一帯",
    "latitude": 35.709635,
    "longitude": 139.718687,
    "address": "新宿区戸塚町、西早稲田、早稲田鶴巻町"
  },
  {
    "id": "evacuation-352",
    "type": "evacuation",
    "name": "落合中央公園一帯",
    "latitude": 35.71277,
    "longitude": 139.69322,
    "address": "新宿区上落合"
  },
  {
    "id": "evacuation-353",
    "type": "evacuation",
    "name": "おとめ山公園地区一帯",
    "latitude": 35.718066,
    "longitude": 139.701488,
    "address": "新宿区下落合"
  },
  {
    "id": "evacuation-354",
    "type": "evacuation",
    "name": "六義園",
    "latitude": 35.732911,
    "longitude": 139.746376,
    "address": "文京区本駒込"
  },
  {
    "id": "evacuation-355",
    "type": "evacuation",
    "name": "東京大学",
    "latitude": 35.711651,
    "longitude": 139.761831,
    "address": "文京区本郷、弥生"
  },
  {
    "id": "evacuation-356",
    "type": "evacuation",
    "name": "後楽園一帯",
    "latitude": 35.705848,
    "longitude": 139.750585,
    "address": "文京区春日、後楽"
  },
  {
    "id": "evacuation-357",
    "type": "evacuation",
    "name": "お茶の水女子大学一帯・教育の森公園一帯",
    "latitude": 35.719961,
    "longitude": 139.736257,
    "address": "文京区大塚"
  },
  {
    "id": "evacuation-358",
    "type": "evacuation",
    "name": "護国寺一帯",
    "latitude": 35.721997,
    "longitude": 139.726234,
    "address": "文京区大塚"
  },
  {
    "id": "evacuation-359",
    "type": "evacuation",
    "name": "小石川植物園",
    "latitude": 35.719818,
    "longitude": 139.744307,
    "address": "文京区白山"
  },
  {
    "id": "evacuation-360",
    "type": "evacuation",
    "name": "目白台運動公園付近一帯",
    "latitude": 35.712042,
    "longitude": 139.725869,
    "address": "文京区関口、目白台"
  },
  {
    "id": "evacuation-361",
    "type": "evacuation",
    "name": "谷中小学校",
    "latitude": 35.72387,
    "longitude": 139.765205,
    "address": "台東区谷中2-9-16"
  },
  {
    "id": "evacuation-362",
    "type": "evacuation",
    "name": "忍岡小学校",
    "latitude": 35.714015,
    "longitude": 139.76692,
    "address": "台東区池之端2-1-22"
  },
  {
    "id": "evacuation-363",
    "type": "evacuation",
    "name": "旧柳北小学校",
    "latitude": 35.699544,
    "longitude": 139.782521,
    "address": "台東区浅草橋5-1-35"
  },
  {
    "id": "evacuation-364",
    "type": "evacuation",
    "name": "松葉小学校",
    "latitude": 35.712231,
    "longitude": 139.786471,
    "address": "台東区松が谷1-13-16"
  },
  {
    "id": "evacuation-365",
    "type": "evacuation",
    "name": "東浅草小学校",
    "latitude": 35.724439,
    "longitude": 139.798209,
    "address": "台東区東浅草2-27-19"
  },
  {
    "id": "evacuation-366",
    "type": "evacuation",
    "name": "柏葉中学校",
    "latitude": 35.723719,
    "longitude": 139.786217,
    "address": "台東区下谷3-1-29"
  },
  {
    "id": "evacuation-367",
    "type": "evacuation",
    "name": "上野小学校",
    "latitude": 35.713586,
    "longitude": 139.783622,
    "address": "台東区東上野6-16-8"
  },
  {
    "id": "evacuation-368",
    "type": "evacuation",
    "name": "田原小学校",
    "latitude": 35.709988,
    "longitude": 139.792782,
    "address": "台東区雷門1-5-14"
  },
  {
    "id": "evacuation-369",
    "type": "evacuation",
    "name": "浅草小学校",
    "latitude": 35.713529,
    "longitude": 139.799192,
    "address": "台東区花川戸1-14-15"
  },
  {
    "id": "evacuation-370",
    "type": "evacuation",
    "name": "千束小学校",
    "latitude": 35.719207,
    "longitude": 139.793993,
    "address": "台東区浅草4-24-11"
  },
  {
    "id": "evacuation-371",
    "type": "evacuation",
    "name": "石浜小学校",
    "latitude": 35.724929,
    "longitude": 139.80342,
    "address": "台東区清川1-14-21"
  },
  {
    "id": "evacuation-372",
    "type": "evacuation",
    "name": "東泉小学校",
    "latitude": 35.728498,
    "longitude": 139.792191,
    "address": "台東区三ノ輪1-23-9"
  },
  {
    "id": "evacuation-373",
    "type": "evacuation",
    "name": "浅草中学校",
    "latitude": 35.699968,
    "longitude": 139.789963,
    "address": "台東区蔵前1-3-4"
  },
  {
    "id": "evacuation-374",
    "type": "evacuation",
    "name": "御徒町台東中学校",
    "latitude": 35.70699,
    "longitude": 139.77744,
    "address": "台東区台東4-13-16"
  },
  {
    "id": "evacuation-375",
    "type": "evacuation",
    "name": "上野中学校",
    "latitude": 35.721164,
    "longitude": 139.774722,
    "address": "台東区上野桜木1-14-55"
  },
  {
    "id": "evacuation-376",
    "type": "evacuation",
    "name": "蔵前小学校",
    "latitude": 35.704394,
    "longitude": 139.789264,
    "address": "台東区蔵前4-19-11"
  },
  {
    "id": "evacuation-377",
    "type": "evacuation",
    "name": "駒形中学校",
    "latitude": 35.717453,
    "longitude": 139.784238,
    "address": "台東区北上野2-15-1"
  },
  {
    "id": "evacuation-378",
    "type": "evacuation",
    "name": "谷中墓地",
    "latitude": 35.724025,
    "longitude": 139.771666,
    "address": "台東区谷中、上野桜木"
  },
  {
    "id": "evacuation-379",
    "type": "evacuation",
    "name": "上野公園一帯",
    "latitude": 35.713566,
    "longitude": 139.772252,
    "address": "台東区上野公園、上野桜木、池之端"
  },
  {
    "id": "evacuation-380",
    "type": "evacuation",
    "name": "隅田公園一帯",
    "latitude": 35.71365,
    "longitude": 139.801312,
    "address": "台東区浅草、今戸、花川戸"
  },
  {
    "id": "evacuation-381",
    "type": "evacuation",
    "name": "白鬚東地区",
    "latitude": 35.732935,
    "longitude": 139.814451,
    "address": "墨田区堤通"
  },
  {
    "id": "evacuation-382",
    "type": "evacuation",
    "name": "都営文花一丁目住宅一帯",
    "latitude": 35.708737,
    "longitude": 139.822234,
    "address": "墨田区文花"
  },
  {
    "id": "evacuation-383",
    "type": "evacuation",
    "name": "両国地区",
    "latitude": 35.69783,
    "longitude": 139.794069,
    "address": "墨田区横網"
  },
  {
    "id": "evacuation-384",
    "type": "evacuation",
    "name": "荒川・四ツ木橋緑地",
    "latitude": 35.729089,
    "longitude": 139.829571,
    "address": "墨田区墨田、東墨田、八広"
  },
  {
    "id": "evacuation-385",
    "type": "evacuation",
    "name": "墨田区役所・隅田公園自由広場一帯",
    "latitude": 35.714403,
    "longitude": 139.805418,
    "address": "墨田区吾妻橋、向島"
  },
  {
    "id": "evacuation-386",
    "type": "evacuation",
    "name": "錦糸公園",
    "latitude": 35.699023,
    "longitude": 139.816427,
    "address": "墨田区錦糸"
  },
  {
    "id": "evacuation-387",
    "type": "evacuation",
    "name": "立花一丁目団地一帯",
    "latitude": 35.705249,
    "longitude": 139.830278,
    "address": "墨田区立花"
  },
  {
    "id": "evacuation-388",
    "type": "evacuation",
    "name": "大島・北砂団地一帯",
    "latitude": 35.686537,
    "longitude": 139.829868,
    "address": "江東区大島、北砂"
  },
  {
    "id": "evacuation-389",
    "type": "evacuation",
    "name": "公社南砂二丁目団地一帯",
    "latitude": 35.671935,
    "longitude": 139.823152,
    "address": "江東区南砂"
  },
  {
    "id": "evacuation-390",
    "type": "evacuation",
    "name": "辰巳団地・潮見運動公園一帯",
    "latitude": 35.648375,
    "longitude": 139.812351,
    "address": "江東区潮見、辰巳"
  },
  {
    "id": "evacuation-391",
    "type": "evacuation",
    "name": "猿江恩賜公園一帯",
    "latitude": 35.689373,
    "longitude": 139.818399,
    "address": "江東区猿江、住吉、毛利"
  },
  {
    "id": "evacuation-392",
    "type": "evacuation",
    "name": "亀戸・大島・小松川地区",
    "latitude": 35.689844,
    "longitude": 139.849468,
    "address": "江東区大島、江戸川区小松川、平井"
  },
  {
    "id": "evacuation-393",
    "type": "evacuation",
    "name": "清澄庭園",
    "latitude": 35.679241,
    "longitude": 139.796571,
    "address": "江東区清澄"
  },
  {
    "id": "evacuation-394",
    "type": "evacuation",
    "name": "東京海洋大学一帯",
    "latitude": 35.669731,
    "longitude": 139.790134,
    "address": "江東区越中島"
  },
  {
    "id": "evacuation-395",
    "type": "evacuation",
    "name": "亀戸中央公園",
    "latitude": 35.700808,
    "longitude": 139.836783,
    "address": "江東区亀戸"
  },
  {
    "id": "evacuation-396",
    "type": "evacuation",
    "name": "都営東砂二丁目住宅一帯",
    "latitude": 35.684778,
    "longitude": 139.84325,
    "address": "江東区東砂"
  },
  {
    "id": "evacuation-397",
    "type": "evacuation",
    "name": "木場公園一帯",
    "latitude": 35.672989,
    "longitude": 139.808189,
    "address": "江東区木場、千石、東陽、平野、三好"
  },
  {
    "id": "evacuation-398",
    "type": "evacuation",
    "name": "亀戸二丁目団地一帯",
    "latitude": 35.700129,
    "longitude": 139.82121,
    "address": "江東区亀戸"
  },
  {
    "id": "evacuation-399",
    "type": "evacuation",
    "name": "南砂三丁目公園一帯",
    "latitude": 35.669926,
    "longitude": 139.832711,
    "address": "江東区南砂"
  },
  {
    "id": "evacuation-400",
    "type": "evacuation",
    "name": "新南大井ビル",
    "latitude": 35.59497,
    "longitude": 139.736901,
    "address": "品川区南大井1-13-4"
  },
  {
    "id": "evacuation-401",
    "type": "evacuation",
    "name": "第一ホテル東京シーフォート",
    "latitude": 35.624369,
    "longitude": 139.751303,
    "address": "品川区東品川2-3-14"
  },
  {
    "id": "evacuation-402",
    "type": "evacuation",
    "name": "リバーサイドマンションＡ棟・Ｂ棟",
    "latitude": 35.599644,
    "longitude": 139.741182,
    "address": "品川区東大井2-17-14"
  },
  {
    "id": "evacuation-403",
    "type": "evacuation",
    "name": "第三東個マンション",
    "latitude": 35.593997,
    "longitude": 139.738824,
    "address": "品川区南大井1-17-6"
  },
  {
    "id": "evacuation-404",
    "type": "evacuation",
    "name": "東大井スカイハイツ",
    "latitude": 35.600893,
    "longitude": 139.739686,
    "address": "品川区東大井2-13-10"
  },
  {
    "id": "evacuation-405",
    "type": "evacuation",
    "name": "ステーションプラザ立会川",
    "latitude": 35.598559,
    "longitude": 139.738554,
    "address": "品川区東大井2-23-4"
  },
  {
    "id": "evacuation-406",
    "type": "evacuation",
    "name": "サンライフ東品川",
    "latitude": 35.620005,
    "longitude": 139.744965,
    "address": "品川区東品川1-28-11"
  },
  {
    "id": "evacuation-407",
    "type": "evacuation",
    "name": "ニックハイム北品川",
    "latitude": 35.622083,
    "longitude": 139.74056,
    "address": "品川区北品川1-22-17"
  },
  {
    "id": "evacuation-408",
    "type": "evacuation",
    "name": "㈱コナミスポーツ＆ライフ",
    "latitude": 35.607945,
    "longitude": 139.74587,
    "address": "品川区東品川4-10-1"
  },
  {
    "id": "evacuation-409",
    "type": "evacuation",
    "name": "來福寺",
    "latitude": 35.601805,
    "longitude": 139.737672,
    "address": "品川区東大井3-13-1"
  },
  {
    "id": "evacuation-410",
    "type": "evacuation",
    "name": "アイルサイドテラス",
    "latitude": 35.620055,
    "longitude": 139.746163,
    "address": "品川区東品川1-32-3"
  },
  {
    "id": "evacuation-411",
    "type": "evacuation",
    "name": "六行会総合ビル",
    "latitude": 35.617049,
    "longitude": 139.742795,
    "address": "品川区北品川2-32-3"
  },
  {
    "id": "evacuation-412",
    "type": "evacuation",
    "name": "前田道路㈱品川営業所",
    "latitude": 35.598331,
    "longitude": 139.744164,
    "address": "品川区勝島1-3-20"
  },
  {
    "id": "evacuation-413",
    "type": "evacuation",
    "name": "上大崎シルバーセンター",
    "latitude": 35.634611,
    "longitude": 139.722027,
    "address": "品川区上大崎"
  },
  {
    "id": "evacuation-414",
    "type": "evacuation",
    "name": "日野学園",
    "latitude": 35.624555,
    "longitude": 139.728325,
    "address": "品川区東五反田2-11-1"
  },
  {
    "id": "evacuation-415",
    "type": "evacuation",
    "name": "品川学園",
    "latitude": 35.61771,
    "longitude": 139.738086,
    "address": "品川区北品川3-9-30"
  },
  {
    "id": "evacuation-416",
    "type": "evacuation",
    "name": "城南小学校",
    "latitude": 35.613329,
    "longitude": 139.742746,
    "address": "品川区南品川2-8-21"
  },
  {
    "id": "evacuation-417",
    "type": "evacuation",
    "name": "城南第二小学校",
    "latitude": 35.61543,
    "longitude": 139.746151,
    "address": "品川区東品川3-4-5"
  },
  {
    "id": "evacuation-418",
    "type": "evacuation",
    "name": "鮫浜小学校",
    "latitude": 35.601716,
    "longitude": 139.740669,
    "address": "品川区東大井2-10-14"
  },
  {
    "id": "evacuation-419",
    "type": "evacuation",
    "name": "浜川小学校",
    "latitude": 35.59828,
    "longitude": 139.736203,
    "address": "品川区南大井4-3-27"
  },
  {
    "id": "evacuation-420",
    "type": "evacuation",
    "name": "鈴ヶ森小学校",
    "latitude": 35.594478,
    "longitude": 139.735242,
    "address": "品川区南大井4-16-2"
  },
  {
    "id": "evacuation-421",
    "type": "evacuation",
    "name": "台場小学校",
    "latitude": 35.620874,
    "longitude": 139.743779,
    "address": "品川区東品川1-8-30"
  },
  {
    "id": "evacuation-422",
    "type": "evacuation",
    "name": "東海中学校",
    "latitude": 35.612621,
    "longitude": 139.748971,
    "address": "品川区東品川3-30-15"
  },
  {
    "id": "evacuation-423",
    "type": "evacuation",
    "name": "浜川中学校",
    "latitude": 35.6002,
    "longitude": 139.737944,
    "address": "品川区東大井3-18-34"
  },
  {
    "id": "evacuation-424",
    "type": "evacuation",
    "name": "鈴ヶ森中学校",
    "latitude": 35.592644,
    "longitude": 139.737731,
    "address": "品川区南大井2-3-14"
  },
  {
    "id": "evacuation-425",
    "type": "evacuation",
    "name": "品川図書館",
    "latitude": 35.616935,
    "longitude": 139.742572,
    "address": "品川区北品川2-32-3"
  },
  {
    "id": "evacuation-426",
    "type": "evacuation",
    "name": "東品川文化センター",
    "latitude": 35.612893,
    "longitude": 139.750593,
    "address": "品川区東品川3-32-10"
  },
  {
    "id": "evacuation-427",
    "type": "evacuation",
    "name": "南大井文化センター",
    "latitude": 35.596293,
    "longitude": 139.737546,
    "address": "品川区南大井1-12-6"
  },
  {
    "id": "evacuation-428",
    "type": "evacuation",
    "name": "東品川児童センター",
    "latitude": 35.619128,
    "longitude": 139.74604,
    "address": "品川区東品川1-34-9"
  },
  {
    "id": "evacuation-429",
    "type": "evacuation",
    "name": "北品川児童センター",
    "latitude": 35.618822,
    "longitude": 139.743962,
    "address": "品川区北品川2-7-21"
  },
  {
    "id": "evacuation-430",
    "type": "evacuation",
    "name": "品川健康センター",
    "latitude": 35.616587,
    "longitude": 139.740732,
    "address": "品川区北品川3-11-22"
  },
  {
    "id": "evacuation-431",
    "type": "evacuation",
    "name": "東品川職員待機寮",
    "latitude": 35.617173,
    "longitude": 139.747379,
    "address": "品川区東品川3-1-5"
  },
  {
    "id": "evacuation-432",
    "type": "evacuation",
    "name": "北品川職員待機寮",
    "latitude": 35.616129,
    "longitude": 139.74006,
    "address": "品川区北品川3-11-17"
  },
  {
    "id": "evacuation-433",
    "type": "evacuation",
    "name": "東大井職員待機寮",
    "latitude": 35.600547,
    "longitude": 139.741536,
    "address": "品川区東大井2-16-12"
  },
  {
    "id": "evacuation-434",
    "type": "evacuation",
    "name": "南大井一丁目区営住宅",
    "latitude": 35.595309,
    "longitude": 139.737111,
    "address": "品川区南大井1-13-7"
  },
  {
    "id": "evacuation-435",
    "type": "evacuation",
    "name": "南大井五丁目区営住宅",
    "latitude": 35.598028,
    "longitude": 139.734161,
    "address": "品川区南大井5-7-10"
  },
  {
    "id": "evacuation-436",
    "type": "evacuation",
    "name": "南大井六丁目区営住宅",
    "latitude": 35.593164,
    "longitude": 139.731479,
    "address": "品川区南大井6-1-20"
  },
  {
    "id": "evacuation-437",
    "type": "evacuation",
    "name": "東大井三丁目区営住宅",
    "latitude": 35.602861,
    "longitude": 139.739397,
    "address": "品川区東大井3-6-18.19"
  },
  {
    "id": "evacuation-438",
    "type": "evacuation",
    "name": "第三日野小学校",
    "latitude": 35.632801,
    "longitude": 139.723819,
    "address": "品川区上大崎1-19-19"
  },
  {
    "id": "evacuation-439",
    "type": "evacuation",
    "name": "御殿山小学校",
    "latitude": 35.623258,
    "longitude": 139.732299,
    "address": "品川区北品川5-2-6"
  },
  {
    "id": "evacuation-440",
    "type": "evacuation",
    "name": "芳水小学校",
    "latitude": 35.619203,
    "longitude": 139.724769,
    "address": "品川区大崎3-12-22"
  },
  {
    "id": "evacuation-441",
    "type": "evacuation",
    "name": "第四日野小学校",
    "latitude": 35.62563,
    "longitude": 139.712364,
    "address": "品川区西五反田4-29-9"
  },
  {
    "id": "evacuation-442",
    "type": "evacuation",
    "name": "第一日野小学校",
    "latitude": 35.622169,
    "longitude": 139.716098,
    "address": "品川区西五反田6-5-32"
  },
  {
    "id": "evacuation-443",
    "type": "evacuation",
    "name": "立会小学校",
    "latitude": 35.604478,
    "longitude": 139.739689,
    "address": "品川区東大井4-15-9"
  },
  {
    "id": "evacuation-444",
    "type": "evacuation",
    "name": "自然教育園・聖心女子学院一帯",
    "latitude": 35.638529,
    "longitude": 139.719575,
    "address": "港区白金、白金台、品川区上大崎"
  },
  {
    "id": "evacuation-445",
    "type": "evacuation",
    "name": "品川区役所一帯",
    "latitude": 35.608697,
    "longitude": 139.732392,
    "address": "品川区広町"
  },
  {
    "id": "evacuation-446",
    "type": "evacuation",
    "name": "大井競馬場・しながわ区民公園",
    "latitude": 35.592632,
    "longitude": 139.74187,
    "address": "品川区勝島"
  },
  {
    "id": "evacuation-447",
    "type": "evacuation",
    "name": "戸越公園一帯",
    "latitude": 35.610674,
    "longitude": 139.72146,
    "address": "品川区豊町"
  },
  {
    "id": "evacuation-448",
    "type": "evacuation",
    "name": "天王洲アイル周辺",
    "latitude": 35.616003,
    "longitude": 139.749266,
    "address": "品川区東品川"
  },
  {
    "id": "evacuation-449",
    "type": "evacuation",
    "name": "大崎駅西口地区一帯",
    "latitude": 35.617599,
    "longitude": 139.728031,
    "address": "品川区大崎"
  },
  {
    "id": "evacuation-450",
    "type": "evacuation",
    "name": "林試の森公園",
    "latitude": 35.625327,
    "longitude": 139.701772,
    "address": "品川区小山台、目黒区下目黒"
  },
  {
    "id": "evacuation-451",
    "type": "evacuation",
    "name": "大井ふ頭一帯",
    "latitude": 35.581008,
    "longitude": 139.778422,
    "address": "品川区八潮、大田区城南島、東海"
  },
  {
    "id": "evacuation-452",
    "type": "evacuation",
    "name": "都営東品川一丁目アパート",
    "latitude": 35.62174266,
    "longitude": 139.7436137,
    "address": "品川区東品川"
  },
  {
    "id": "evacuation-453",
    "type": "evacuation",
    "name": "都立国際高等学校",
    "latitude": 35.659294,
    "longitude": 139.678892,
    "address": "目黒区駒場2-19-59"
  },
  {
    "id": "evacuation-454",
    "type": "evacuation",
    "name": "駒場小学校",
    "latitude": 35.659817,
    "longitude": 139.682075,
    "address": "目黒区駒場3-11-13"
  },
  {
    "id": "evacuation-455",
    "type": "evacuation",
    "name": "第一中学校",
    "latitude": 35.654632,
    "longitude": 139.686429,
    "address": "目黒区大橋2-11-1"
  },
  {
    "id": "evacuation-456",
    "type": "evacuation",
    "name": "都立駒場高等学校",
    "latitude": 35.654988,
    "longitude": 139.685451,
    "address": "目黒区大橋2-18-1"
  },
  {
    "id": "evacuation-457",
    "type": "evacuation",
    "name": "菅刈小学校及び菅刈公園",
    "latitude": 35.651507,
    "longitude": 139.692404,
    "address": "目黒区青葉台3-3-26、2-11-25"
  },
  {
    "id": "evacuation-458",
    "type": "evacuation",
    "name": "東山中学校",
    "latitude": 35.646476,
    "longitude": 139.690227,
    "address": "目黒区東山1-24-31"
  },
  {
    "id": "evacuation-459",
    "type": "evacuation",
    "name": "東山小学校",
    "latitude": 35.64692,
    "longitude": 139.685758,
    "address": "目黒区東山2-24-25"
  },
  {
    "id": "evacuation-460",
    "type": "evacuation",
    "name": "烏森小学校",
    "latitude": 35.644365,
    "longitude": 139.692883,
    "address": "目黒区上目黒3-37-27"
  },
  {
    "id": "evacuation-461",
    "type": "evacuation",
    "name": "めぐろ学校サポートセンター",
    "latitude": 35.639305,
    "longitude": 139.702768,
    "address": "目黒区中目黒3-6-10"
  },